ID,Source,Severity,Start_Time,End_Time,Start_Lat,Start_Lng,End_Lat,End_Lng,Distance(mi),Description,Street,City,County,State,Zipcode,Country,Timezone,Airport_Code,Weather_Timestamp,Temperature(F),Wind_Chill(F),Humidity(%),Pressure(in),Visibility(mi),Wind_Direction,Wind_Speed(mph),Precipitation(in),Weather_Condition,Amenity,Bump,Crossing,Give_Way,Junction,No_Exit,Railway,Roundabout,Station,Stop,Traffic_Calming,Traffic_Signal,Turning_Loop,Sunrise_Sunset,Civil_Twilight,Nautical_Twilight,Astronomical_Twilight
A-3323175,Source2,2,2017-09-21 11:45:15,2017-09-21 12:29:45,35.144157,-80.928459,,,0.0,Accident on NC-49 Tryon St near Yager Creek Dr.,S Tryon St,Charlotte,Mecklenburg,NC,28273-3319,US,US/Eastern,KCLT,2017-09-21 11:52:00,86.0,,55.0,30.06,10.0,NE,8.1,,Partly Cloudy,False,False,False,False,False,False,False,False,True,False,False,True,False,Day,Day,Day,Day
A-6673656,Source1,2,2020-12-11 23:23:55,2020-12-12 01:33:35,42.660866,-91.074546,42.693636,-91.07355600000001,2.265,Slow traffic on US-52 S - US-52 N from Wm Andre St (US-52) to Pumpkin Ridge Rd (US-52) due to accident., 390th St,Guttenberg,Clayton,IA,52052-8139,US,US/Central,KPDC,2020-12-11 23:15:00,33.0,26.0,85.0,29.23,5.0,NNE,8.0,0.0,Light Snow,False,False,False,False,False,False,False,False,False,False,False,False,False,Night,Night,Night,Night
A-4396352,Source1,2,2022-04-25 17:12:34.000000000,2022-04-25 18:51:05.000000000,25.794977,-80.265603,25.795308,-80.265485,0.024,Incident on MCLAUGHLIN near N SERVICE RD Drive with caution.,NW 21st,Miami,Miami-Dade,FL,33122,US,US/Eastern,KMIA,2022-04-25 16:53:00,82.0,82.0,60.0,30.06,10.0,E,13.0,0.0,Partly Cloudy,False,False,False,False,False,False,False,False,False,False,False,False,False,Day,Day,Day,Day
A-1136898,Source2,3,2021-02-27 20:03:25,2021-02-27 20:59:04,29.328926,-94.930939,,,0.0,Two lanes blocked due to accident on I-45 Gulf Fwy Northbound at I-45 TX-146.,I-45 N,Hitchcock,Galveston,TX,77563,US,US/Central,KGLS,2021-02-27 20:02:00,66.0,66.0,93.0,29.89,1.0,SE,20.0,0.0,Fog,False,False,False,False,False,False,False,False,False,False,False,False,False,Night,Night,Night,Night
A-6540556,Source1,2,2021-02-02 13:22:00,2021-02-02 14:24:00,29.424498,-98.501464,29.416086,-98.50317199999999,0.59,Stationary traffic on US-87 S - I-10 E - I-35 S from exit [155B] to S Alamo St (TX-536 Spur) exit [155A] due to accident.,I-10 E,San Antonio,Bexar,TX,78207,US,US/Central,KSKF,2021-02-02 12:56:00,63.0,63.0,28.0,29.44,10.0,S,6.0,0.0,Fair,False,False,False,False,True,False,False,False,False,False,False,False,False,Day,Day,Day,Day
A-1270434,Source2,2,2020-11-12 16:12:46,2020-11-12 16:42:23,34.174313,-118.850006,,,0.0,#4 lane blocked due to accident on US-101 Northbound before CA-23 Exits 12A 12B.,CA-23 N,Westlake Village,Ventura,CA,91361,US,US/Pacific,KCMA,2020-11-12 15:55:00,64.0,64.0,43.0,29.93,10.0,W,10.0,0.0,Fair,False,False,False,False,False,False,False,False,False,False,False,False,False,Day,Day,Day,Day
A-2330953,Source2,3,2019-01-11 07:33:58,2019-01-11 08:03:39,35.792362,-78.745361,,,0.0,Shoulder blocked due to accident on I-40 Westbound at Chapel Hill Rd.,Chapel Hill Rd,Raleigh,Wake,NC,27607,US,US/Eastern,KRDU,2019-01-11 07:51:00,21.9,,78.0,30.34,10.0,Calm,,,Partly Cloudy,False,False,False,False,False,False,False,False,False,False,False,False,False,Day,Day,Day,Day
A-3867670,Source1,2,2022-02-24 13:04:30.000000000,2022-02-24 15:15:13.000000000,28.357716999999997,-80.7326,28.355605999999998,-80.731902,0.152,Stationary traffic on US-1 S - FL-520 - FL-5 from N Cocoa Blvd / Peachtree St to Hughlett Ave due to accident.,Peachtree St,Cocoa,Brevard,FL,32922,US,US/Eastern,KTIX,2022-02-24 12:47:00,82.0,82.0,54.0,30.21,7.0,SE,9.0,,Partly Cloudy,False,False,True,False,False,False,False,False,False,False,False,True,False,Day,Day,Day,Day
A-6536715,Source1,2,2021-02-11 07:56:48,2021-02-11 09:36:07,34.669009,-92.383921,34.663351,-92.399351,0.96,Incident on I-30 WB near I-30 Expect long delays.,Mabelvale Pike,Little Rock,Pulaski,AR,72209,US,US/Central,KLIT,2021-02-11 07:53:00,27.0,17.0,89.0,29.96,6.0,N,12.0,0.01,Cloudy,False,False,False,False,False,False,False,False,False,False,False,False,False,Day,Day,Day,Day
A-4130752,Source1,2,2022-02-20 10:56:00,2022-02-20 12:28:00,36.855038,-121.570431,36.859268,-121.596549,1.473,Slow traffic on CA-156 W - US-101 S - El Camino Real S - CA-156 from Rocks Rd (CA-156) to CR-G11/San Juan Rd (CA-156) due to accident.,San Juan Hollister Rd,San Juan Bautista,San Benito,CA,95045,US,US/Pacific,KCVH,2022-02-20 10:55:00,54.0,54.0,62.0,29.77,10.0,CALM,0.0,0.0,Fair,False,False,False,False,False,False,False,False,False,False,False,False,False,Day,Day,Day,Day
A-4354128,Source1,2,2022-09-16 16:11:23,2022-09-16 16:35:01,28.337597,-81.48025200000002,28.333264,-81.479738,0.301,Slow traffic on FL-535 from W Osceola Pkwy (CR-535) to US-192/W Irlo Bronson Memorial Hwy (CR-535) due to accident., Vineland Rd,Kissimmee,Osceola,FL,34746-5515,US,US/Eastern,KISM,2022-09-16 15:59:00,81.0,81.0,79.0,29.96,10.0,ESE,13.0,0.0,Thunder in the Vicinity,False,False,False,False,False,False,False,False,False,False,False,False,False,Day,Day,Day,Day
A-3358878,Source2,2,2017-08-04 18:41:29,2017-08-04 19:25:55,34.168121,-118.58812,,,0.0,Middle lane blocked due to accident on US-101 Eastbound at De Soto Ave.,De Soto Ave,Woodland Hills,Los Angeles,CA,91367,US,US/Pacific,KVNY,2017-08-04 18:51:00,86.0,,35.0,29.84,10.0,ESE,6.9,,Clear,False,False,False,False,False,False,False,False,False,False,False,False,False,Day,Day,Day,Day
A-2265992,Source2,2,2019-02-05 07:47:05,2019-02-05 08:16:27,40.50428,-111.891174,,,0.0,Right hand shoulder blocked due to accident on I-15 Northbound at Exit 289 UT-154 Bangerter Hwy.,I-15 S,Draper,Salt Lake,UT,84020,US,US/Mountain,KU42,2019-02-05 07:55:00,36.3,30.1,72.0,29.52,10.0,SE,8.1,,Overcast,False,False,False,False,False,False,False,False,False,False,False,False,False,Day,Day,Day,Day
A-3353135,Source2,2,2017-08-02 03:17:44,2017-08-02 03:47:09,34.842133000000004,-118.193626,,,0.0,Accident on 35th St at Willow Ave.,Willow Ave,Rosamond,Kern,CA,93560,US,US/Pacific,KWJF,2017-08-02 02:56:00,77.0,,69.0,29.92,10.0,NE,5.8,,Clear,False,False,False,False,False,False,False,False,False,False,False,False,False,Night,Night,Night,Night
A-3940130,Source1,2,2022-05-26 15:46:41,2022-05-26 19:33:35,34.071461,-118.124051,34.072029,-118.07598999999999,2.7510000000000003,Slow traffic on San Bernardino Fwy E - I-10 E from Atlantic Blvd (I-10) to CA-19/Rosemead Blvd/Flair Dr (I-10) due to accident.,I-10 E,Alhambra,Los Angeles,CA,91803,US,US/Pacific,KCQT,2022-05-26 15:47:00,68.0,,63.0,29.74,10.0,,,0.0,Fair,False,False,False,False,True,False,False,False,False,False,False,False,False,Day,Day,Day,Day
A-538636,Source2,1,2022-08-12 11:13:13,2022-08-12 11:43:02,33.776878,-79.021149,,,0.0,Crash on SC-544 at Singleton Ridge Rd.,Singleton Ridge Rd,Conway,Horry,SC,29526-9163,US,US/Eastern,KHYW,2022-08-12 11:15:00,79.0,79.0,78.0,29.97,10.0,W,7.0,0.0,Thunder in the Vicinity,False,False,False,False,False,False,False,False,False,False,False,True,False,Day,Day,Day,Day
A-5445129,Source1,2,2023-02-10 07:58:03,2023-02-10 10:34:10,39.943177,-74.978705,39.94311,-74.978588,0.008,Crash on NJ 73 southbound NJ 38 (Maple Shade Twp) 1 Right lane of 3 lanes closed 5-10 minute delay use caution,State Highway 73,Maple Shade,Burlington,NJ,08052,US,US/Eastern,KVAY,2023-02-10 07:54:00,59.0,59.0,55.0,29.83,10.0,W,17.0,0.0,Fair,False,False,False,False,False,False,False,False,False,False,False,False,False,Day,Day,Day,Day
A-2635071,Source2,2,2018-08-08 18:34:29,2018-08-08 19:19:14,34.27245300000001,-118.556114,,,0.0,Right hand shoulder blocked due to accident on CA-118 Eastbound at Exit 37 Tampa Ave.,Tampa Ave,Porter Ranch,Los Angeles,CA,91326,US,US/Pacific,K3A6,2018-08-08 18:51:00,91.0,91.0,14.0,29.02,10.0,SSE,6.0,0.0,Fair,False,False,False,False,False,False,False,False,False,False,False,False,False,Day,Day,Day,Day
A-6832925,Source1,2,2020-11-27 17:10:30,2020-11-28 03:25:00,34.074563,-117.61828500000001,34.067341,-117.55806299999999,3.483,Stationary traffic on San Bernardino Fwy E - I-10 E from 4th St (I-10) to Milliken Ave (I-10) due to accident.,I-10 E,Ontario,San Bernardino,CA,91764,US,US/Pacific,KONT,2020-11-27 16:53:00,62.0,62.0,11.0,29.1,10.0,W,8.0,0.0,Fair,False,False,False,False,False,False,False,False,False,False,False,False,False,Night,Night,Day,Day
A-1268554,Source2,2,2020-11-12 07:18:16,2020-11-12 08:36:04,39.740131,-75.589417,,,0.0,Accident on New Rd at DE-100 Dupont Rd.,S Dupont Rd,Wilmington,New Castle,DE,19805,US,US/Eastern,KILG,2020-11-12 07:11:00,65.0,65.0,93.0,29.8,10.0,NNE,5.0,0.0,Light Rain,False,False,False,False,False,False,False,False,False,False,False,True,False,Day,Day,Day,Day
A-4052759,Source1,2,2023-02-22 16:28:31,2023-02-22 18:36:40,40.860213,-73.827451,40.86914,-73.8329,0.679,crash I-95 - New England Thruway northbound between exit 8C and exit 9,New England Trwy N,Bronx,Bronx,NY,10475,US,US/Eastern,KLGA,2023-02-22 16:07:00,38.0,32.0,73.0,30.11,7.0,NNE,8.0,0.02,Light Rain,False,False,False,False,False,False,False,False,False,False,False,False,False,Day,Day,Day,Day
A-7566793,Source1,4,2018-06-01 13:42:20,2018-06-01 19:42:20,39.625469,-82.853838,39.63176,-82.83608000000002,1.04,Closed at US-22/Lancaster Pike - Road closed due to accident., US Highway 22 E,Stoutsville,Pickaway,OH,43154-9621,US,US/Eastern,KLHQ,2018-06-01 13:53:00,75.0,,82.0,29.86,10.0,West,6.9,,Mostly Cloudy,False,False,False,False,False,False,False,False,False,False,False,False,False,Day,Day,Day,Day
A-7433854,Source1,2,2019-03-27 15:24:15,2019-03-27 19:24:15,45.795963,-120.01888100000001,45.78944,-120.03338000000001,0.831,At OR-74/Exit 147 - Accident.,I-84 W,Arlington,Gilliam,OR,97812,US,US/Pacific,KHRI,2019-03-27 15:53:00,48.9,,80.0,29.87,10.0,SW,4.6,0.0,Overcast,False,False,False,False,False,False,False,False,False,False,False,False,False,Day,Day,Day,Day
A-4764017,Source1,2,2022-12-03 03:19:31,2022-12-03 05:24:04,42.27737546,-83.15610766,42.27761546,-83.15692766,0.045,SB I-75 at Schaefer,I-75,Detroit,Wayne,MI,48217,US,US/Eastern,KDTW,2022-12-03 02:53:00,51.0,51.0,80.0,29.1,8.0,SW,24.0,0.0,Light Rain / Windy,False,False,False,False,False,False,False,False,False,False,False,False,False,Night,Night,Night,Night
A-2676742,Source3,2,2018-08-29 16:24:14,2018-08-29 16:53:49,37.582264,-122.252853,,,0.0,#1 lane blocked due to accident on CA-92 Eastbound on San Mateo Bridge.,CA-92 E,San Mateo,San Mateo,CA,94404,US,US/Pacific,KSQL,2018-08-29 16:50:00,71.6,,50.0,29.94,10.0,WSW,11.5,,Scattered Clouds,False,False,False,False,False,False,False,False,False,False,False,False,False,Day,Day,Day,Day
A-4124361,Source1,2,2022-08-14 10:25:01,2022-08-14 10:49:30,40.828517,-73.93474,40.838833,-73.933178,0.7170000000000001,Slow traffic on Harlem River Dr N from 5th Ave/Exit 22 (Harlem River Dr) to I-95/Amsterdam Ave/Exit 23 (Harlem River Dr) due to accident.,Harlem River Dr N,New York,New York,NY,10039,US,US/Eastern,KNYC,2022-08-14 10:51:00,76.0,76.0,43.0,29.98,10.0,VAR,5.0,0.0,Fair,False,False,False,False,False,False,False,False,False,False,False,False,False,Day,Day,Day,Day
A-6517767,Source1,2,2021-02-20 07:08:00,2021-02-20 09:14:37,34.289487,-117.45156000000001,34.293094,-117.452871,0.26,Accident on Kenwood Ave (I-15) from Cleghorn Rd (I-15) to I-15 N - Barstow Fwy N.,Barstow Fwy N,San Bernardino,San Bernardino,CA,92407,US,US/Pacific,KSBD,2021-02-20 11:52:00,66.0,66.0,28.0,28.86,6.0,W,6.0,0.0,Haze,False,False,False,False,False,False,False,False,False,False,False,False,False,Day,Day,Day,Day
A-1283614,Source2,2,2020-11-03 06:37:46,2020-11-03 07:36:57,33.466358,-81.332474,,,0.0,Accident on SC-39 at New Forest Rd.,SC Highway 39,Williston,Barnwell,SC,29853-3416,US,US/Eastern,KBNL,2020-11-03 06:35:00,30.0,30.0,93.0,30.03,10.0,CALM,0.0,0.0,Fair,False,False,False,False,False,False,False,False,False,False,False,False,False,Night,Day,Day,Day
A-2639725,Source2,3,2018-08-10 18:03:30,2018-08-10 18:32:19,47.512901,-121.849174,,,0.0,Two right lane blocked due to accident on I-90 Westbound after Exit 27 Winery Rd.,I-90 E,Snoqualmie,King,WA,98065,US,US/Pacific,KRNT,2018-08-10 17:53:00,82.0,,47.0,29.93,10.0,SSW,6.9,,Clear,False,False,False,False,False,False,False,False,False,False,False,False,False,Day,Day,Day,Day
A-2808677,Source2,2,2018-05-07 07:57:14,2018-05-07 08:26:52,33.957382,-117.860619,,,0.0,Right hand shoulder blocked due to accident on CA-57 Southbound at Exit 13 Brea Canyon Rd.,CA-57 S,Rowland Heights,Los Angeles,CA,91748,US,US/Pacific,KFUL,2018-05-07 07:53:00,59.0,,87.0,30.05,8.0,Calm,,,Overcast,False,False,False,False,False,False,False,False,False,False,False,False,False,Day,Day,Day,Day
A-2454369,Source2,2,2018-11-13 08:08:14,2018-11-13 08:38:02,33.494862,-111.895981,,,0.0,Accident on Indian School Rd at 86th St.,E Indian School Rd,Scottsdale,Maricopa,AZ,85251,US,US/Mountain,KPHX,2018-11-13 07:51:00,50.0,,29.0,30.48,10.0,East,4.6,,Clear,False,False,True,False,False,False,False,False,True,True,False,False,False,Day,Day,Day,Day
A-6217990,Source1,2,2021-11-26 10:15:00.000000000,2021-11-26 11:32:10.000000000,38.761548,-120.58526599999999,38.761624,-120.58513,0.009000000000000001,Incident on PONY EXPRESS TRL near SCHOOL ST Drive with caution., Pony Express Trl,Pollock Pines,El Dorado,CA,95726-9603,US,US/Pacific,KPVF,2021-11-26 10:15:00,59.0,59.0,25.0,27.56,10.0,WNW,6.0,0.0,Fair,False,False,False,False,False,False,False,False,False,False,False,False,False,Day,Day,Day,Day
A-2071517,Source2,2,2019-06-25 16:31:18,2019-06-25 17:31:10,30.44383,-91.167931,,,0.0,Accident on LA-73 Government St at 20th St.,S 20th St,Baton Rouge,East Baton Rouge,LA,70806-4949,US,US/Central,KBTR,2019-06-25 16:53:00,79.0,79.0,72.0,30.0,10.0,WNW,5.0,0.0,Thunder in the Vicinity,False,False,False,False,False,False,False,False,False,False,False,False,False,Day,Day,Day,Day
A-3335999,Source2,2,2017-09-27 08:16:48,2017-09-27 08:46:30,39.767761,-86.50750699999998,,,0.0,Accident on Sycamore Ln at County Rd 50.,Sycamore Ln,Danville,Hendricks,IN,46122-8678,US,US/Eastern,KIND,2017-09-27 07:54:00,69.1,,84.0,29.99,9.0,North,9.2,,Partly Cloudy,False,False,False,False,False,False,False,False,False,False,False,False,False,Day,Day,Day,Day
A-5928606,Source1,2,2021-12-06 20:11:15,2021-12-06 21:27:14,32.686993,-96.82296600000001,32.686965,-96.82287099999999,0.006,Incident on E LEDBETTER DR near S R L THORNTON Expect long delays.,Ledbetter Dr,Dallas,Dallas,TX,75232,US,US/Central,KRBD,2021-12-06 19:53:00,46.0,41.0,33.0,29.48,10.0,N,10.0,0.0,Fair,False,False,False,False,False,False,False,False,False,False,False,False,False,Night,Night,Night,Night
A-1259639,Source2,2,2020-11-19 10:08:31,2020-11-19 11:23:03,30.4196,-91.187477,,,0.0,Accident on LA-30 Nicholson Dr at Aster St.,Aster St,Baton Rouge,East Baton Rouge,LA,70802,US,US/Central,KBTR,2020-11-19 09:53:00,66.0,66.0,56.0,30.33,10.0,E,8.0,0.0,Fair,False,False,False,False,False,False,False,False,True,False,False,False,False,Day,Day,Day,Day
A-6149434,Source1,2,2021-08-26 15:48:00,2021-08-26 16:08:00,40.445622,-79.99045100000002,40.438423,-79.994089,0.5329999999999999,Stationary traffic on I-579 S from exit [2A] to Liberty Brg due to accident.,I-579 S,Pittsburgh,Allegheny,PA,15222,US,US/Eastern,KAGC,2021-08-26 15:53:00,84.0,84.0,63.0,28.79,9.0,CALM,0.0,0.0,Partly Cloudy,False,False,False,False,False,False,False,False,False,False,False,False,False,Day,Day,Day,Day
A-3578542,Source1,4,2017-03-10 16:25:53,2017-03-10 22:25:53,35.97318,-80.508061,36.02463,-80.4014,6.942,Closed between Farmington Rd/Exit 174 and Harper Rd/Exit 182 - Road closed due to accident.,I-40 E,Mocksville,Davie,NC,27028,US,US/Eastern,KEXX,2017-03-10 16:30:00,57.9,,28.0,29.99,10.0,WNW,9.2,,Clear,False,False,False,False,False,False,False,False,False,False,False,False,False,Day,Day,Day,Day
A-6004602,Source1,2,2021-08-06 14:33:13,2021-08-06 16:35:33,38.246736999999996,-77.519052,38.244859999999996,-77.52521,0.358,Slow traffic on VA-208 from Hood Dr/Houser Dr (Courthouse Rd/VA-208) to Leavells Rd (Courthouse Rd/VA-208) due to accident., Courthouse Rd,Fredericksburg,Spotsylvania,VA,22407-1612,US,US/Eastern,KEZF,2021-08-06 14:35:00,89.0,89.0,38.0,30.04,10.0,CALM,0.0,0.0,Fair,False,False,False,False,False,False,False,False,False,False,False,False,False,Day,Day,Day,Day
A-2030628,Source2,2,2019-06-03 08:27:55,2019-06-03 09:08:39,29.5112,-98.535118,,,0.0,Left hand shoulder blocked due to accident on I-410-Loop Westbound at Vance Jackson Rd.,Vance Jackson Rd,San Antonio,Bexar,TX,78213,US,US/Central,KSAT,2019-06-03 08:41:00,81.0,81.0,77.0,29.13,10.0,SSE,8.0,0.0,Cloudy,False,False,False,False,False,False,False,False,False,False,False,True,False,Day,Day,Day,Day
A-3397863,Source2,3,2017-08-24 16:52:39,2017-08-24 17:37:29,42.701317,-73.848732,,,0.0,Accident on I-87 Northbound at Exit 24 New York Trwy.,New York Trwy S,Albany,Albany,NY,12205,US,US/Eastern,KALB,2017-08-24 16:51:00,73.0,,49.0,29.95,10.0,NNW,10.4,,Scattered Clouds,False,False,False,False,False,False,False,False,False,False,False,False,False,Day,Day,Day,Day
A-5278782,Source1,2,2022-04-11 21:23:27,2022-04-11 22:43:30,34.848071999999995,-111.834924,34.846251,-111.845605,0.619,Incident on W STATE RTE-89A WB near CULTURAL PARK PL Drive with caution., W State Route 89A,Sedona,Yavapai,AZ,86336,US,US/Mountain,KSEZ,2022-04-11 21:53:00,56.0,56.0,45.0,24.69,10.0,S,14.0,0.0,Fair,False,False,False,False,False,False,False,False,False,False,False,False,False,Night,Night,Night,Night
A-3197521,Source2,2,2017-11-21 10:18:08,2017-11-21 11:02:56,35.157894,-79.418892,,,0.0,Accident on US-501 at Columbus Dr.,US Highway 15 501,Aberdeen,Moore,NC,28315-2359,US,US/Eastern,KHFF,2017-11-21 09:56:00,45.9,42.9,73.0,30.28,10.0,SE,5.8,,Mostly Cloudy,False,False,False,False,False,False,False,False,False,False,False,False,False,Day,Day,Day,Day
A-4627303,Source1,2,2022-05-01 18:14:30,2022-05-01 19:06:30,33.566874,-86.82325300000002,33.555521,-86.831457,0.9159999999999999,Stationary traffic on US-78 E - I-65 S - AL-4 E from AL-31/Exit 266 (I-65) to 32nd Ave/33rd Ave/Exit 263 (I-65) due to accident.,I-65,Birmingham,Jefferson,AL,35207,US,US/Central,KBHM,2022-05-01 17:53:00,82.0,82.0,52.0,29.32,10.0,W,9.0,0.0,Partly Cloudy,False,False,False,False,False,False,False,False,False,False,False,False,False,Day,Day,Day,Day
A-1949956,Source2,3,2019-07-03 18:19:13,2019-07-03 19:32:43,35.449379,-97.570618,,,0.0,Lane blocked due to accident on I-44 Southbound at Exit 119 15th St.,I-44 W,Oklahoma City,Oklahoma,OK,73108,US,US/Central,KOKC,2019-07-03 17:52:00,80.0,80.0,67.0,28.51,10.0,E,15.0,0.0,Mostly Cloudy,False,False,False,False,False,False,False,False,False,False,False,False,False,Day,Day,Day,Day
A-1899047,Source2,2,2019-09-07 01:36:55,2019-09-07 03:06:35,34.491703,-118.198395,,,0.0,Accident on CA-14 at Crown Valley Rd.,Crown Valley Rd,Acton,Los Angeles,CA,93510,US,US/Pacific,KPMD,2019-09-07 01:53:00,77.0,77.0,39.0,27.39,10.0,SW,6.0,0.0,Fair,False,False,False,False,False,False,False,False,False,False,False,False,False,Night,Night,Night,Night
A-2845302,Source2,2,2018-05-24 16:23:37,2018-05-24 16:53:02,35.439419,-97.512527,,,0.0,Accident on 25th St at Santa Fe Ave.,SW 25th St,Oklahoma City,Oklahoma,OK,73109-6018,US,US/Central,KOKC,2018-05-24 16:52:00,87.1,,49.0,29.95,10.0,South,11.5,,Scattered Clouds,False,False,False,False,False,False,False,False,False,False,False,False,False,Day,Day,Day,Day
A-4262440,Source1,2,2022-07-21 16:55:30,2022-07-21 18:29:30,39.092868,-94.571846,39.099546999999994,-94.572119,0.462,Slow traffic on US-71 N from 22nd St (US-71) to I-70/I-670 (US-71) due to accident.,Bruce R. Watkins Dr,Kansas City,Jackson,MO,64108,US,US/Central,KMKC,2022-07-21 16:54:00,96.0,96.0,33.0,29.08,10.0,NW,5.0,0.0,Fair,False,False,False,False,True,False,False,False,False,False,False,False,False,Day,Day,Day,Day
A-2433750,Source2,2,2018-11-05 17:31:56,2018-11-05 18:01:44,30.411613,-97.728546,,,0.0,Accident on Duval Rd at Mohican Dr.,Duval Rd,Austin,Travis,TX,78759,US,US/Central,KATT,2018-11-05 17:51:00,73.9,,71.0,29.75,10.0,SSW,3.5,,Clear,False,False,False,False,False,False,False,False,False,False,False,False,False,Day,Day,Day,Day
A-2004173,Source2,3,2019-08-04 13:21:36,2019-08-04 14:00:00,34.126072,-117.916306,,,0.0,Accident on I-210 Eastbound at Exit 39 Vernon Ave.,N Vernon Ave,Azusa,Los Angeles,CA,91702-4335,US,US/Pacific,KEMT,2019-08-04 12:53:00,84.0,84.0,49.0,29.82,10.0,SSW,9.0,0.0,Fair,False,False,False,False,False,False,False,False,False,False,False,False,False,Day,Day,Day,Day
A-1079826,Source2,2,2021-04-16 16:41:08,2021-04-16 20:40:59,34.8522,-82.45165300000002,,,0.0,Accident on SC-253 Blue Ridge Dr at US-25 White Horse Rd.,W Blue Ridge Dr,Greenville,Greenville,SC,29611-3909,US,US/Eastern,KGMU,2021-04-16 16:53:00,69.0,69.0,27.0,28.7,10.0,S,9.0,0.0,Fair,False,False,False,False,False,False,False,False,False,False,False,True,False,Day,Day,Day,Day
A-7114459,Source1,2,2020-03-13 05:04:00,2020-03-13 06:57:43,33.735594,-117.818321,33.735594,-117.818321,0.0,At Red Hill Ave/Exit 101B - Accident.,I-5 N,Tustin,Orange,CA,92780,US,US/Pacific,KSNA,2020-03-13 05:05:00,58.0,58.0,81.0,29.77,3.0,CALM,0.0,0.06,Rain,False,False,False,False,False,False,False,False,False,False,False,False,False,Night,Night,Night,Night
A-1498272,Source2,2,2020-06-08 07:33:07,2020-06-08 08:05:00,45.13998400000001,-93.496262,,,0.0,Earlier accident on I-94 Eastbound after MN-610.,I-94 E,Maple Grove,Hennepin,MN,55311,US,US/Central,KMIC,2020-06-08 07:53:00,79.0,79.0,66.0,28.86,10.0,SSE,15.0,0.0,Fair,False,False,False,False,False,False,False,False,False,False,False,False,False,Day,Day,Day,Day
A-2400224,Source2,2,2018-12-17 04:48:23,2018-12-17 05:33:07,43.010113,-85.674782,,,0.0,Accident on US-131 Northbound near Exit 89 I-96.,US-131 N,Grand Rapids,Kent,MI,49544,US,US/Eastern,KGRR,2018-12-17 04:53:00,35.1,27.9,72.0,30.01,10.0,West,9.2,,Clear,False,False,False,False,False,False,False,False,False,False,False,False,False,Night,Night,Night,Night
A-1792196,Source2,2,2019-11-01 05:48:01,2019-11-01 06:34:17,28.539009000000004,-81.314217,,,0.0,Accident on Lake Underhill Rd at Mercado Ave.,Mercado Ave,Orlando,Orange,FL,32807-1667,US,US/Eastern,KORL,2019-11-01 05:53:00,71.0,71.0,87.0,29.94,10.0,NNW,12.0,0.0,Cloudy,False,False,True,False,False,False,False,False,False,False,False,True,False,Night,Night,Night,Night
A-7217017,Source1,2,2020-01-10 10:48:00,2020-01-10 12:02:27,38.663975,-121.225628,38.663975,-121.225628,0.0,At CR-E3/Hazel Ave - Accident., Madison Ave,Fair Oaks,Sacramento,CA,95628-4009,US,US/Pacific,KMHR,2020-01-10 10:49:00,46.0,42.0,93.0,30.24,8.0,SSE,8.0,,Cloudy,False,False,False,False,False,False,False,False,False,False,False,False,False,Day,Day,Day,Day
A-2741600,Source2,2,2018-06-04 08:29:48,2018-06-04 08:59:16,37.924911,-122.05764,,,0.0,One lane blocked due to recovery work accident and spillage on Jones Rd both ways at Oak Rd.,Jones Rd,Walnut Creek,Contra Costa,CA,94597,US,US/Pacific,KCCR,2018-06-04 08:53:00,73.9,,38.0,29.87,10.0,West,11.5,,Clear,False,False,False,False,False,False,False,False,False,False,False,True,False,Day,Day,Day,Day
A-1764177,Source2,2,2019-10-18 05:49:01,2019-10-18 07:04:29,45.51738,-122.660751,,,0.0,Lane blocked due to accident on OR-99E Grand Ave at Morrison St.,SE Morrison St,Portland,Multnomah,OR,97214,US,US/Pacific,KPDX,2019-10-18 05:53:00,51.0,51.0,80.0,29.96,10.0,SSW,12.0,0.0,Light Rain,True,False,True,False,False,False,True,False,True,False,False,True,False,Night,Night,Night,Night
A-3437206,Source1,2,2016-10-17 07:56:26,2016-10-17 13:56:26,38.914451,-104.824202,38.914390999999995,-104.82408199999999,0.008,At Delmonico Dr - Accident.,Pro Rodeo Dr,Colorado Springs,El Paso,CO,80919,US,US/Mountain,KAFF,2016-10-17 07:58:00,62.2,,18.0,29.36,10.0,South,5.8,,Clear,False,False,True,False,False,False,False,False,False,False,False,True,False,Day,Day,Day,Day
A-7326793,Source1,2,2019-10-02 21:31:00,2019-10-02 23:43:55,32.745487,-117.18873500000001,32.745487,-117.18873500000001,0.0,At Old Town Ave/Exit 19 - Accident.,San Diego Fwy S,San Diego,San Diego,CA,92110,US,US/Pacific,KSAN,2019-10-02 21:51:00,66.0,66.0,75.0,29.91,10.0,N,3.0,0.0,Fair,False,False,False,False,False,False,False,False,False,False,False,False,False,Night,Night,Night,Night
A-3845956,Source1,2,2022-12-05 09:14:00.000000000,2022-12-05 10:35:49.000000000,26.746554999999997,-81.91821999999998,26.749481,-81.919814,0.225,Incident on US-41 NB near TARA BLVD Road closed. Take alternate route., N Tamiami Trl,North Fort Myers,Lee,FL,33903,US,US/Eastern,KFMY,2022-12-05 08:53:00,71.0,71.0,73.0,30.09,10.0,CALM,0.0,0.0,Fair,False,False,False,False,False,False,False,False,False,False,False,False,False,Day,Day,Day,Day
A-7581808,Source1,2,2018-05-11 08:55:16,2018-05-11 14:55:16,30.417209999999997,-89.18778,30.416829999999997,-89.19773,0.593,At County Farm Rd/Exit 28 - Accident.,I-10 W,Gulfport,Harrison,MS,39503,US,US/Central,KGPT,2018-05-11 08:53:00,81.0,,65.0,30.12,10.0,South,3.5,,Clear,False,False,False,False,False,False,False,False,False,False,False,False,False,Day,Day,Day,Day
A-4548311,Source1,2,2022-11-05 13:53:00,2022-11-05 15:11:42,37.776483,-120.781566,37.776777,-120.774702,0.375,Incident on CA-108 near ORANGE BLOSSOM RD Drive with caution.,Orange Blossom Rd,Oakdale,Stanislaus,CA,95361,US,US/Pacific,KMOD,2022-11-05 13:53:00,63.0,63.0,54.0,29.99,10.0,E,6.0,0.0,Mostly Cloudy,False,False,False,False,False,False,False,False,False,True,False,False,False,Day,Day,Day,Day
A-1977584,Source2,2,2019-07-19 11:57:07,2019-07-19 12:56:49,34.705406,-86.588799,,,0.0,Accident on US-231 Southbound at Drake Ave.,Memorial Pkwy SW,Huntsville,Madison,AL,35801,US,US/Central,KHUA,2019-07-19 11:58:00,86.0,86.0,68.0,29.34,10.0,WNW,3.0,0.0,Cloudy,False,False,False,False,False,False,False,False,False,False,False,True,False,Day,Day,Day,Day
A-4939701,Source1,2,2022-08-27 10:29:00.000000000,2022-08-27 12:50:31.000000000,33.877044,-118.10992399999999,33.876816,-118.114281,0.25,Incident on CA-91 WB near WOODRUFF AVE Drive with caution.,Artesia Fwy W,Bellflower,Los Angeles,CA,90706,US,US/Pacific,KLGB,2022-08-27 10:53:00,75.0,75.0,64.0,29.83,10.0,SSE,7.0,0.0,Fair,False,False,False,False,False,False,False,False,False,False,False,False,False,Day,Day,Day,Day
A-6948196,Source1,2,2020-12-12 20:09:00,2020-12-12 22:27:03,33.911801000000004,-118.17455600000001,33.909271000000004,-118.181836,0.45299999999999996,AT. BLK CHEV SDN VS BLU TOYT CAM // VEHS BLOCKING[Shared],Glenn Anderson Fwy W,Paramount,Los Angeles,CA,90723,US,US/Pacific,KLGB,2020-12-12 19:53:00,57.0,57.0,83.0,30.06,10.0,CALM,0.0,0.0,Fair,False,False,False,False,True,False,False,False,False,False,False,False,False,Night,Night,Night,Night
A-7102762,Source1,2,2020-06-20 15:53:38,2020-06-20 17:53:38,45.785090000000004,-123.44134,45.785090000000004,-123.44134,0.0,At Timber Rd/NW Veronia Rd - Accident., Highway 26,Seaside,Clatsop,OR,97138-6077,US,US/Pacific,KAST,2020-06-20 15:55:00,63.0,63.0,87.0,30.02,10.0,SSW,10.0,0.0,Cloudy,False,False,False,False,False,False,False,False,False,False,False,False,False,Day,Day,Day,Day
A-6873797,Source1,2,2020-11-25 13:40:00,2020-11-25 17:07:38,34.206866,-118.20508999999998,34.206115999999994,-118.19878,0.364,JWO. GRY SD VS BLK TK - BLKING #1/4 LNS,Foothill Fwy E,La Canada Flintridge,Los Angeles,CA,91011,US,US/Pacific,KMWS,,,,,,,,,,,False,False,False,False,False,False,False,False,False,False,False,False,False,Day,Day,Day,Day
A-7232852,Source1,2,2020-01-21 15:53:00,2020-01-21 16:24:58,33.346986,-117.1588,33.346986,-117.1588,0.0,At US-395/Mission Rd - Accident.,Escondido Fwy N,Fallbrook,San Diego,CA,92028,US,US/Pacific,KNFG,2020-01-21 15:55:00,60.0,60.0,69.0,30.04,10.0,SSW,7.0,0.0,Mostly Cloudy,False,False,False,False,False,False,False,False,False,False,False,False,False,Day,Day,Day,Day
A-5969997,Source1,2,2021-04-21 06:32:30,2021-04-21 16:53:31,25.700336,-80.16168499999998,25.698906,-80.16247299999998,0.11,Stationary traffic on FL-913 from Rickenbacker Cir to Key Colony Front Gate due to accident., Crandon Blvd,Key Biscayne,Miami-Dade,FL,33149-1410,US,US/Eastern,KMIA,2021-04-21 06:18:00,77.0,77.0,94.0,29.96,10.0,NW,5.0,0.0,Cloudy,False,False,False,False,False,False,False,False,False,False,False,False,False,Night,Day,Day,Day
A-1386630,Source2,2,2020-07-15 09:09:03,2020-07-15 09:38:53,42.83588,-83.72831,,,0.0,Accident on Torrey Rd at Crane Rd.,Crane Rd,Fenton,Genesee,MI,48430-1055,US,US/Eastern,KFNT,2020-07-15 08:53:00,74.0,74.0,64.0,29.24,10.0,S,7.0,0.0,Light Rain,False,False,False,False,False,False,False,False,False,False,False,False,False,Day,Day,Day,Day
A-2606081,Source2,2,2018-09-25 09:51:54,2018-09-25 10:21:30,42.196861,-87.989403,,,3.1500000953674316,Lane blocked due to accident on IL-83 both ways between County Hwy-33 Aptakisic Rd and IL-22.,IL Route 83,Long Grove,Lake,IL,60047-5203,US,US/Central,KPWK,2018-09-25 09:52:00,73.9,,76.0,29.89,10.0,SSW,5.8,,Mostly Cloudy,False,False,False,False,False,False,False,False,False,False,False,False,False,Day,Day,Day,Day
A-1361417,Source2,2,2020-10-28 08:59:35,2020-10-28 09:58:38,33.810741,-79.028763,,,0.0,Accident on US-501 Northbound at Amber Ln.,E Highway 501,Conway,Horry,SC,29526-8306,US,US/Eastern,KHYW,2020-10-28 08:55:00,61.0,61.0,94.0,30.11,10.0,CALM,0.0,0.0,Fair,False,False,False,False,False,False,False,False,False,False,False,False,False,Day,Day,Day,Day
A-4934995,Source1,2,2023-02-21 08:28:06,2023-02-21 10:52:52,40.666203,-74.285493,40.676965,-74.278727,0.8240000000000001,NJ Turnpike Auth.: Crash on Garden State Parkway northbound North of Exit 137 - NJ 28 (Cranford Twp) All lanes open,Garden State Pkwy N,Kenilworth,Union,NJ,07033,US,US/Eastern,KLDJ,2023-02-21 08:35:00,38.0,33.0,86.0,29.63,10.0,NNE,8.0,0.0,Cloudy,False,False,False,False,False,False,False,False,False,False,False,False,False,Day,Day,Day,Day
A-4755577,Source1,2,2022-09-29 18:03:59,2022-09-29 19:43:58,40.270866999999996,-75.35686700000002,40.271122999999996,-75.358021,0.063,Incident on FRETZ RD near YODER RD Drive with caution.,I-476,Harleysville,Montgomery,PA,19438,US,US/Eastern,KPTW,2022-09-29 17:54:00,62.0,62.0,50.0,30.01,10.0,NE,5.0,0.0,Fair,False,False,False,False,False,False,False,False,False,False,False,False,False,Day,Day,Day,Day
A-6013140,Source1,2,2021-07-25 15:46:30,2021-07-25 17:59:12,33.988378000000004,-117.90390900000001,33.988871,-117.905621,0.10400000000000001,Slow traffic from Batson Ave to CA-60 E due to accident., Colima Rd,Rowland Heights,Los Angeles,CA,91748-2749,US,US/Pacific,KFUL,2021-07-25 15:53:00,78.0,78.0,56.0,29.81,10.0,S,8.0,0.0,Mostly Cloudy,False,False,False,False,False,False,False,False,True,False,False,True,False,Day,Day,Day,Day
A-1987411,Source2,2,2019-07-25 16:18:56,2019-07-25 17:49:23,41.237862,-96.002747,,,0.0,Accident on 58th St at NE-38 Center St.,Center St,Omaha,Douglas,NE,68106-3058,US,US/Central,KMLE,2019-07-25 16:15:00,78.0,78.0,68.0,28.92,10.0,SE,15.0,0.0,Cloudy,False,False,False,False,False,False,False,False,False,False,False,False,False,Day,Day,Day,Day
A-2082562,Source2,2,2019-05-31 15:08:05,2019-05-31 15:37:50,34.153759,-118.325867,,,0.0,HOV lane blocked due to accident on CA-134 Eastbound at Exit 3 Riverside Dr.,CA-134 E,Burbank,Los Angeles,CA,91506,US,US/Pacific,KBUR,2019-05-31 14:53:00,72.0,72.0,55.0,29.02,10.0,S,14.0,0.0,Fair,False,False,False,False,False,False,False,False,False,False,False,False,False,Day,Day,Day,Day
A-6729511,Source1,2,2020-12-20 05:51:00,2020-12-20 10:05:53,33.768716999999995,-117.25565,33.767297,-117.257465,0.14300000000000002,1039 AFN [Shared], State Highway 74,Perris,Riverside,CA,92570-8113,US,US/Pacific,KRIV,2020-12-20 05:56:00,31.0,31.0,50.0,28.56,10.0,CALM,0.0,0.0,Fair,False,False,False,False,False,False,False,False,False,False,False,False,False,Night,Night,Day,Day
A-1788686,Source2,3,2019-10-31 19:12:40,2019-10-31 19:57:22,42.533798,-83.11592900000002,,,0.0,Right lane blocked due to accident on I-75 Northbound at Exits 65A 65B 14 Mile Rd.,Chrysler Expy N,Madison Heights,Oakland,MI,48071,US,US/Eastern,KVLL,2019-10-31 19:15:00,43.0,36.0,90.0,28.78,10.0,WNW,15.0,0.0,Rain,False,False,False,False,False,False,False,False,False,False,False,False,False,Night,Night,Day,Day
A-41880,Source2,3,2016-06-11 08:05:56,2016-06-11 09:10:00,37.825237,-122.305832,,,0.0,One lane blocked due to accident on I-80 Eastbound near Exits 8A 8B I-880.,I-80 W,Oakland,Alameda,CA,94607,US,US/Pacific,KOAK,2016-06-11 07:53:00,61.0,,64.0,29.94,10.0,Calm,,,Scattered Clouds,False,False,False,False,True,False,False,False,False,False,False,False,False,Day,Day,Day,Day
A-7382516,Source1,2,2019-11-16 17:43:38,2019-11-16 21:43:38,43.93907,-117.33871,43.93907,-117.33871,0.0,At A St W/Graham Blvd/Nachez St S - Accident., Highway 20,Vale,Malheur,OR,97918-5688,US,US/Mountain,KONO,2019-11-16 17:53:00,52.0,52.0,43.0,27.99,10.0,CALM,0.0,0.0,Fair,False,False,False,False,False,False,False,False,False,False,False,False,False,Night,Day,Day,Day
A-2569013,Source2,3,2018-09-07 06:41:47,2018-09-07 07:11:13,40.63339600000001,-74.015869,,,0.0,Accident on I-278 Gowanus Expy Southbound at Exit 20 7th Ave.,Gowanus Expy E,Brooklyn,Kings,NY,11220,US,US/Eastern,KJRB,2018-09-07 06:35:00,77.0,,83.0,30.42,10.0,North,,,Overcast,False,False,False,False,False,False,False,False,False,False,False,False,False,Day,Day,Day,Day
A-3733748,Source1,2,2022-05-19 06:33:00,2022-05-19 10:15:00,47.467897,-122.21462,47.539365999999994,-122.194709,5.025,Stationary traffic on I-405 N - WA-900 N from WA-181/Valley Hwy/Exit 1 (I-405) to Lake Washington Blvd/Exit 9 (I-405) due to accident.,I-405 N,Renton,King,WA,98055,US,US/Pacific,KRNT,2022-05-19 06:53:00,47.0,42.0,74.0,30.14,10.0,S,10.0,0.0,Mostly Cloudy,False,False,False,False,False,False,False,False,False,False,False,False,False,Day,Day,Day,Day
A-3248342,Source2,2,2017-10-16 13:14:27,2017-10-16 13:44:11,44.057915,-121.307045,,,0.0,One lane blocked due to accident on US-97 Bend Pkwy Northbound near Hawthorne Ave.,Bend Pkwy,Bend,Deschutes,OR,97701,US,US/Pacific,KBDN,2017-10-16 13:15:00,66.2,,28.0,30.25,10.0,Calm,,,Clear,False,False,False,False,False,False,False,False,False,False,False,False,False,Day,Day,Day,Day
A-934463,Source2,3,2021-08-16 17:44:37,2021-08-16 18:28:39,41.716866,-88.007217,,,0.0,Lane blocked due to accident on I-55 Barack Obama Presidential Expy Southbound at Lemont Rd.,Lemont Rd,Woodridge,DuPage,IL,60517,US,US/Central,KLOT,2021-08-16 17:35:00,80.0,80.0,48.0,29.3,10.0,CALM,0.0,0.0,Fair,False,False,False,False,False,False,False,False,False,False,False,False,False,Day,Day,Day,Day
A-4074077,Source1,2,2022-11-02 08:15:14.000000000,2022-11-02 09:31:50.000000000,25.933920999999998,-80.238945,25.933826999999997,-80.240959,0.125,Incident on NW 175TH ST near NW 24TH AVE Drive with caution., NW 175th St,Miami Gardens,Miami-Dade,FL,33056-4631,US,US/Eastern,KOPF,2022-11-02 07:53:00,78.0,78.0,87.0,30.12,10.0,ENE,3.0,0.0,Fair,False,False,False,False,False,False,False,False,False,False,False,False,False,Day,Day,Day,Day
A-2412379,Source2,3,2018-12-22 17:47:49,2018-12-22 18:17:30,29.777878,-95.381104,,,0.0,Two lanes blocked due to accident on I-10 Eastbound at Exit 767B Katy Fwy.,Taylor St,Houston,Harris,TX,77007,US,US/Central,KMCJ,2018-12-22 17:55:00,69.8,,64.0,29.97,10.0,Variable,6.9,,Clear,False,False,False,False,False,False,False,False,False,False,False,False,False,Night,Day,Day,Day
A-7713604,Source1,2,2019-04-23 09:21:00,2019-04-23 10:19:00,40.595017999999996,-111.435898,40.585215999999996,-111.436751,0.679,At UT-32/CR-3130/W River Rd - Accident.,US-189 S,Heber City,Wasatch,UT,84032,US,US/Mountain,K36U,,,,,,,,,,,False,False,False,False,False,False,False,False,False,False,False,False,False,Day,Day,Day,Day
A-5612615,Source1,2,2021-04-21 05:37:30,2021-04-21 07:41:00,32.7108,-117.14774799999999,32.702996,-117.14538,0.557,Slow traffic on San Diego Fwy S - John J Montgomery Fwy S - I-5 S from CA-94 (I-5) to CA-75/Crosby Rd (I-5) due to accident.,I-5 S,San Diego,San Diego,CA,92101,US,US/Pacific,KSAN,2021-04-21 05:51:00,60.0,60.0,67.0,29.9,10.0,SSE,12.0,0.0,Mostly Cloudy,False,False,False,False,False,False,False,False,False,False,False,False,False,Night,Night,Day,Day
A-5237736,Source1,2,2022-08-10 16:41:12,2022-08-10 18:01:40,40.231266999999995,-75.522613,40.231574,-75.523453,0.049,Incident on RIDGE PIKE near N LIMERICK RD Drive with caution., W Ridge Pike,Royersford,Montgomery,PA,19468-1434,US,US/Eastern,KPTW,2022-08-10 16:54:00,82.0,82.0,58.0,29.69,10.0,CALM,0.0,0.0,Fair,True,False,False,False,False,False,False,False,False,False,False,False,False,Day,Day,Day,Day
A-5068253,Source1,2,2022-04-20 16:46:55,2022-04-20 17:08:36,30.409716999999997,-86.822439,30.409777000000002,-86.837863,0.919,Slow traffic on FL-30 - US-98 W from A-21 Rd (US-98) to CR-399/Navarre Beach Cswy (US-98) due to accident., Southshore Ln,Navarre,Santa Rosa,FL,32566-2937,US,US/Central,KNFJ,2022-04-20 16:56:00,72.0,72.0,54.0,30.16,10.0,SE,16.0,0.0,Mostly Cloudy,False,False,True,False,False,False,False,False,False,False,False,False,False,Day,Day,Day,Day
A-7183630,Source1,2,2020-04-17 06:22:00,2020-04-17 06:54:30,34.06605,-117.32808,34.06605,-117.32808,0.0,At 9th St/Exit 70B - Accident.,I-10 E,Colton,San Bernardino,CA,92324,US,US/Pacific,KSBD,2020-04-17 07:00:00,54.0,54.0,72.0,28.71,10.0,CALM,0.0,0.0,Mostly Cloudy,False,False,False,False,False,False,False,False,False,False,False,False,False,Day,Day,Day,Day
A-4977148,Source1,2,2022-11-01 07:52:18,2022-11-01 09:10:45,35.89989,-78.576351,35.900405,-78.577446,0.071,Incident on DURANT RD near CAMP DURANT RD Drive with caution., Durant Rd,Raleigh,Wake,NC,27614-9364,US,US/Eastern,KRDU,2022-11-01 07:51:00,64.0,64.0,90.0,29.66,3.0,NW,5.0,0.0,Cloudy,False,False,False,False,False,False,False,False,False,False,False,False,False,Day,Day,Day,Day
A-763168,Source2,2,2021-12-27 20:50:11,2021-12-27 21:19:37,33.450844000000004,-82.074005,,,0.0,Accident on I-520 Bobby Jones Expy Westbound at Exit 3 US-78 Gordon Hwy.,Bobby Jones Expy E,Augusta,Richmond,GA,30909,US,US/Eastern,KDNL,2021-12-27 20:53:00,68.0,68.0,76.0,29.51,10.0,SW,3.0,0.0,Cloudy,False,False,False,False,False,False,False,False,False,False,False,False,False,Night,Night,Night,Night
A-3552416,Source1,4,2016-06-27 05:54:47,2016-06-27 11:54:47,34.05165,-118.21391000000001,34.05402,-118.20983999999999,0.285,Ramp closed to Exit 135C - Road closed due to accident.,I-10 E,Los Angeles,Los Angeles,CA,90033,US,US/Pacific,KCQT,2016-06-27 05:47:00,66.0,,87.0,29.89,6.0,Calm,,,Clear,False,False,False,False,True,False,False,False,False,False,False,False,False,Day,Day,Day,Day
A-3521502,Source1,3,2016-06-10 14:34:33,2016-06-10 20:34:33,41.691623,-72.647665,41.679382000000004,-72.654871,0.924,At CT-99/Exit 24 - Accident.,I-91 S,Wethersfield,Hartford,CT,06109,US,US/Eastern,KHFD,2016-06-10 14:53:00,75.9,,32.0,29.95,10.0,NNW,13.8,,Clear,False,False,False,False,False,False,False,False,False,False,False,False,False,Day,Day,Day,Day
A-7568860,Source1,4,2018-06-07 05:40:15,2018-06-07 11:40:15,39.096586,-77.531161,39.089369,-77.519072,0.818,Closed at River Creek Pkwy - Road closed due to accident., E Market St,Leesburg,Loudoun,VA,20176-4451,US,US/Eastern,KJYO,2018-06-07 05:35:00,57.2,,94.0,30.08,10.0,Calm,,,Overcast,False,False,False,False,False,False,False,False,False,False,False,False,False,Night,Day,Day,Day
A-7292,Source2,3,2016-12-15 17:53:44,2016-12-15 18:23:26,38.540779,-121.510918,,,0.01,Accident on I-5 Northbound at Exit 516 Sutterville Rd.,I-5 S,Sacramento,Sacramento,CA,95818,US,US/Pacific,KSAC,2016-12-15 17:53:00,55.9,,100.0,29.68,4.0,SSE,10.4,0.32,Rain,False,False,False,False,False,False,False,False,False,True,False,False,False,Night,Night,Night,Day
A-1683826,Source2,3,2019-12-30 15:35:34,2019-12-30 16:19:45,33.911961,-84.207985,,,0.0,Queueing traffic and HOV lane blocked due to accident on I-85 Northbound before Exit 99 GA-140 Jimmy Carter Blvd.,Jimmy Carter Blvd,Norcross,Gwinnett,GA,30093,US,US/Eastern,KPDK,2019-12-30 15:53:00,58.0,58.0,41.0,28.8,10.0,WNW,14.0,0.0,Fair,False,False,False,False,False,False,False,False,False,False,False,False,False,Day,Day,Day,Day
A-845715,Source3,2,2021-10-21 05:54:57,2021-10-21 06:56:00,36.989819,-122.020576,,,0.30000001192092896,Exit ramp from CA-1 Northbound at Exits 441 441B to CA-17 Northbound shoulder blocked due to accident.,Lee St,Santa Cruz,Santa Cruz,CA,95060-1928,US,US/Pacific,KWVI,2021-10-21 05:53:00,59.0,59.0,100.0,29.94,9.0,N,5.0,0.0,Cloudy,False,False,False,False,False,False,False,False,False,False,False,False,False,Night,Night,Night,Day
A-5352257,Source1,2,2022-09-12 16:45:15,2022-09-12 18:00:16,37.520903000000004,-77.44855600000002,37.521752,-77.449413,0.075,Incident on W 15TH ST near HOUSE 214 Drive with caution., Porter St,Richmond,Richmond City,VA,23224-2067,US,US/Eastern,KFCI,2022-09-12 16:56:00,87.0,87.0,57.0,29.51,10.0,SW,9.0,0.0,Partly Cloudy,False,False,False,False,False,False,False,False,False,False,False,False,False,Day,Day,Day,Day
A-7435254,Source1,4,2019-03-30 15:38:17,2019-03-30 16:07:48,39.442147,-111.91434,39.477415,-111.89158799999998,2.722,Closed at Powell Ln - Road closed due to accident.,UT-28,Nephi,Juab,UT,84648,US,US/Mountain,KPVU,2019-03-30 15:56:00,48.9,,43.0,30.25,10.0,WNW,10.4,,Scattered Clouds,False,False,False,False,False,False,False,False,False,False,False,False,False,Day,Day,Day,Day
A-4257991,Source1,2,2022-02-23 13:44:04,2022-02-23 14:04:35,28.451602,-81.477678,28.450072,-81.478454,0.11599999999999999,Accident on FL-482 at Majorca Pl.,Turkey Lake Rd,Orlando,Orange,FL,32819,US,US/Eastern,KMCO,2022-02-23 13:53:00,82.0,82.0,51.0,30.09,10.0,VAR,3.0,0.0,Partly Cloudy,False,False,False,False,False,False,False,False,False,False,False,False,False,Day,Day,Day,Day
A-5051712,Source1,2,2022-07-09 16:58:00,2022-07-09 19:06:46,36.578744,-121.75537299999999,36.578864,-121.75528600000001,0.01,Accident on A Rd from B Camp to C Camp.,A Rd,Monterey,Monterey,CA,93940,US,US/Pacific,KMRY,2022-07-09 16:54:00,67.0,67.0,63.0,29.93,10.0,W,10.0,0.0,Fair,False,False,False,False,False,False,False,False,False,False,False,False,False,Day,Day,Day,Day
A-5815673,Source1,2,2021-11-18 14:03:30,2021-11-18 14:24:30,32.79274106010059,-96.61856532050793,32.78609106010059,-96.62458532050795,0.5770000000000001,Stationary traffic at US-80 W due to accident.,US-80,Mesquite,Dallas,TX,75150,US,US/Central,KHQZ,2021-11-18 13:50:00,61.0,61.0,19.0,29.95,10.0,N,21.0,0.0,Fair / Windy,False,False,False,False,True,False,False,False,False,False,False,False,False,Day,Day,Day,Day
A-2037513,Source2,3,2019-06-06 06:09:23,2019-06-06 06:39:03,47.672363,-117.211006,,,0.0,Accident on I-90 Westbound before Evergreen Rd.,I-90 W,Spokane,Spokane,WA,99216,US,US/Pacific,KSFF,2019-06-06 06:07:00,56.0,56.0,77.0,27.83,10.0,S,7.0,0.0,Cloudy,False,False,False,False,False,False,False,False,False,False,False,False,False,Day,Day,Day,Day
A-503792,Source2,2,2017-07-13 16:51:39,2017-07-13 17:51:10,41.881172,-72.81736,,,1.649999976158142,Serious accident and rolled over vehicle on Great Pond Rd between Owens Brook Blvd and Plank Hill Rd.,Great Pond Rd,Simsbury,Hartford,CT,06070-1902,US,US/Eastern,KBDL,2017-07-13 16:51:00,66.0,,96.0,30.04,7.0,NNE,8.1,0.73,Light Thunderstorms and Rain,False,False,False,False,False,False,False,False,False,False,False,False,False,Day,Day,Day,Day
A-3550290,Source1,2,2016-09-06 07:51:29,2016-09-06 13:51:29,33.84556,-117.87592,33.85559,-117.87539,0.6940000000000001,At CA-91/Riverside Fwy - Accident.,CA-57 N,Anaheim,Orange,CA,92806,US,US/Pacific,KFUL,2016-09-06 07:53:00,68.0,,68.0,29.84,10.0,Calm,,,Overcast,False,False,False,False,False,False,False,False,False,False,False,False,False,Day,Day,Day,Day
A-3936244,Source1,2,2022-03-07 06:59:30.000000000,2022-03-07 11:22:00.000000000,33.74303,-117.840301,33.738655,-117.82843899999999,0.746,Accident on E 1st St (I-5) from Newport Ave (I-5) to Santa Ana Fwy S - I-5 S.,I-5 S,Santa Ana,Orange,CA,92705,US,US/Pacific,KSNA,2022-03-07 06:53:00,49.0,49.0,64.0,30.16,10.0,NNW,3.0,0.0,Fair,False,False,False,False,False,False,False,False,False,False,False,False,False,Day,Day,Day,Day
A-7195525,Source1,2,2020-04-24 23:56:15,2020-04-25 00:41:15,40.796009999999995,-73.97674,40.796009999999995,-73.97674,0.0,At 79th St - Accident.,Henry Hudson Pkwy S,New York,New York,NY,10024,US,US/Eastern,KNYC,2020-04-24 23:51:00,47.0,47.0,86.0,29.8,10.0,CALM,0.0,0.0,Fair,False,False,False,False,True,False,False,False,False,False,False,False,False,Night,Night,Night,Night
A-7558337,Source1,2,2018-07-09 18:39:04,2018-07-10 00:39:04,37.80771,-122.36764,37.80811,-122.36719,0.037000000000000005,At Treasure Island Rd - Accident.,I-80 W,San Francisco,San Francisco,CA,94130,US,US/Pacific,KOAK,2018-07-09 18:53:00,72.0,,51.0,30.02,10.0,West,6.9,,Partly Cloudy,False,False,False,False,False,False,False,False,False,False,False,False,False,Day,Day,Day,Day
A-6875421,Source1,2,2020-11-17 17:23:19,2020-11-17 20:26:17,25.881560999999998,-80.173987,25.881674,-80.171715,0.141,Incident on NE 115TH ST near NE 13TH AVE Drive with caution., Peachtree Dr,Miami,Miami-Dade,FL,33161-6853,US,US/Eastern,KOPF,2020-11-17 16:53:00,78.0,78.0,62.0,30.08,10.0,NNE,17.0,0.0,Mostly Cloudy,False,False,False,False,False,False,False,False,False,False,False,False,False,Day,Day,Day,Day
A-1048247,Source2,2,2021-05-12 07:23:13,2021-05-12 09:44:53,35.83477,-78.671227,,,0.0,Accident on US-70 Glenwood Ave at I-440 Cliff Benson Beltline Exits 6.,I-440 W,Raleigh,Wake,NC,27612,US,US/Eastern,KRDU,2021-05-12 07:51:00,54.0,54.0,49.0,29.81,10.0,NE,13.0,0.0,Cloudy,False,False,False,False,False,False,False,False,False,False,False,False,False,Day,Day,Day,Day
A-7186571,Source1,3,2020-04-20 13:42:45,2020-04-20 14:12:45,35.22318,-80.72485999999998,35.22318,-80.72485999999998,0.0,At N Sharon Amity Rd - Accident.,Hickory Grove Rd,Charlotte,Mecklenburg,NC,28215,US,US/Eastern,KJQF,2020-04-20 13:50:00,61.0,61.0,63.0,29.01,10.0,N,8.0,0.0,Mostly Cloudy,False,False,False,False,False,False,False,False,False,False,False,True,False,Day,Day,Day,Day
A-3901737,Source1,2,2022-10-04 18:55:00,2022-10-04 20:55:00,35.220201,-78.64943199999998,35.209307,-78.662109,1.0390000000000001,The left lane is closed 1 mile before Exit 65 (NC 82).,I-95 S,Dunn,Cumberland,NC,28334,US,US/Eastern,KHRJ,2022-10-04 18:55:00,64.0,64.0,44.0,29.78,10.0,N,5.0,0.0,Mostly Cloudy,False,False,False,False,False,False,False,False,False,False,False,False,False,Night,Day,Day,Day
A-7133359,Source1,2,2020-03-24 12:48:56,2020-03-24 13:48:56,42.38539,-83.25495,42.38539,-83.25495,0.0,At I-96 Local/Outer Dr/Exit 180 - Accident. Hard shoulder blocked.,Edward J Jeffries Fwy,Detroit,Wayne,MI,48223,US,US/Eastern,KVLL,2020-03-24 12:55:00,40.0,40.0,72.0,29.4,10.0,S,3.0,0.0,Cloudy,False,False,False,False,False,False,False,False,False,False,False,False,False,Day,Day,Day,Day
A-4544386,Source1,2,2022-02-10 17:02:55.000000000,2022-02-10 20:01:30.000000000,35.798801,-78.56718000000002,35.79971,-78.562588,0.265,Stationary traffic on US-64 Bus E at Corporation Pkwy due to accident., New Bern Ave,Raleigh,Wake,NC,27610-1331,US,US/Eastern,KRDU,2022-02-10 16:51:00,64.0,64.0,26.0,29.52,10.0,WSW,16.0,0.0,Fair,False,False,True,False,False,False,False,False,False,False,False,False,False,Day,Day,Day,Day
A-5845642,Source1,2,2021-07-11 08:54:00,2021-07-11 10:58:10,38.035187,-122.26763899999999,38.034607,-122.26749699999999,0.040999999999999995,Incident on PACIFIC AVE near PARKER AVE Right shoulder closed.,Pacific Ave,Rodeo,Contra Costa,CA,94572,US,US/Pacific,KCCR,2021-07-11 18:53:00,78.0,78.0,40.0,29.73,10.0,SSW,14.0,0.0,Fair,True,False,False,False,False,False,False,False,True,False,False,False,False,Day,Day,Day,Day
A-2037740,Source2,2,2019-06-06 14:00:16,2019-06-06 14:29:39,39.834255,-123.635979,,,0.0,Accident on US-101 at CA-271.,Redwood Hwy N,Leggett,Mendocino,CA,95585,US,US/Pacific,KO87,2019-06-06 13:55:00,59.0,59.0,67.0,29.68,10.0,WNW,17.0,0.0,Partly Cloudy,False,False,False,False,True,False,False,False,False,False,False,False,False,Day,Day,Day,Day
A-3189938,Source2,2,2017-11-16 07:07:26,2017-11-16 08:07:13,32.412552000000005,-93.814598,,,0.0,Accident on Walker Rd from Newport St to Mackey Ln.,Walker Rd,Shreveport,Caddo,LA,71118-2032,US,US/Central,KSHV,2017-11-16 06:56:00,63.0,,90.0,30.12,10.0,Calm,,,Overcast,False,False,False,False,False,False,False,False,False,False,False,False,False,Day,Day,Day,Day
A-3257483,Source2,2,2017-10-20 14:16:35,2017-10-20 15:01:04,35.885197,-83.953598,,,0.0,Slow traffic and roadway reduced from lanes to one lane due to accident on US-129 Alcoa Hwy Northbound at TN-168.,W Governor John Sevier Hwy,Knoxville,Knox,TN,37920-5543,US,US/Eastern,KTYS,2017-10-20 13:53:00,72.0,,48.0,30.24,10.0,NNE,8.1,,Scattered Clouds,False,False,False,False,False,False,False,False,False,False,False,False,False,Day,Day,Day,Day
A-2752631,Source2,3,2018-06-10 12:15:46,2018-06-10 12:45:17,25.889278,-80.209335,,,0.0,Left lane blocked due to accident on I-95 Northbound before Exit 10A FL-922 125th St.,I-95 S,Miami,Miami-Dade,FL,33168,US,US/Eastern,KOPF,2018-06-10 12:36:00,84.0,,63.0,30.08,10.0,East,4.6,0.0,Clear,False,False,False,False,False,False,False,False,False,False,False,True,False,Day,Day,Day,Day
A-2360694,Source2,2,2019-01-25 15:32:28,2019-01-25 16:02:18,30.391939,-91.090691,,,0.0,Accident on LA-1248 Bluebonnet Blvd at Picardy Ave.,Bluebonnet Blvd,Baton Rouge,East Baton Rouge,LA,70836,US,US/Central,KBTR,2019-01-25 15:53:00,62.1,,30.0,30.27,10.0,Variable,4.6,,Clear,False,False,False,False,False,False,False,False,False,False,False,False,False,Day,Day,Day,Day
A-3161301,Source2,3,2017-11-01 11:33:31,2017-11-01 12:18:11,46.808914,-92.061295,,,1.0499999523162842,Accident on I-35 Northbound between Exit 258 21st Ave and Exit 259 26th Ave.,London Rd,Duluth,St. Louis,MN,55812,US,US/Central,KDLH,2017-11-01 11:55:00,26.1,16.2,92.0,29.84,0.8,SSE,10.4,0.01,Light Snow,False,False,True,False,False,False,False,False,False,False,False,True,False,Day,Day,Day,Day
A-743202,Source2,3,2022-01-18 06:35:47,2022-01-18 07:34:07,33.509972,-86.82012900000002,,,0.0,Two lanes blocked due to accident on I-65 Northbound before US-11 3rd Ave.,I-65,Birmingham,Jefferson,AL,35203,US,US/Central,KBHM,2022-01-18 06:53:00,29.0,29.0,92.0,29.52,10.0,CALM,0.0,0.0,Fair,False,False,False,False,False,False,False,False,False,False,False,False,False,Night,Day,Day,Day
A-3773122,Source1,2,2022-05-18 15:30:27,2022-05-18 16:45:28,36.765259,-77.482626,36.764307,-77.487639,0.285,Incident on I-95 SB near MM 17 Drive with caution.,I-95,Emporia,Greensville,VA,23847,US,US/Eastern,KEMV,2022-05-18 15:35:00,81.0,81.0,36.0,29.85,10.0,CALM,0.0,0.0,Fair,False,False,False,False,False,False,False,False,False,False,False,False,False,Day,Day,Day,Day
A-1799675,Source2,3,2019-11-05 15:52:33,2019-11-05 19:08:00,32.681732000000004,-96.74424,,,0.0,Two lanes blocked due to accident on I-45 Southbound at Exit 277 Simpson Stuart Rd.,Simpson Stuart Rd,Dallas,Dallas,TX,75241,US,US/Central,KRBD,2019-11-05 15:53:00,62.0,62.0,96.0,29.42,1.0,NNW,5.0,0.0,Fog,False,False,False,False,False,False,False,False,False,False,False,False,False,Day,Day,Day,Day
A-3773107,Source1,2,2022-06-24 08:53:30,2022-06-24 20:49:30,30.560503999999998,-97.69265,30.502692,-97.683123,4.034,Slow traffic on I-35 S from Westinghouse Rd/Exit 257 (I-35) to I-35 Bus (I-35) due to accident.,I-35 S,Round Rock,Williamson,TX,78664,US,US/Central,KEDC,2022-06-24 08:55:00,81.0,81.0,70.0,29.3,10.0,SSW,8.0,0.0,Fair,False,False,False,False,False,False,False,False,False,False,False,False,False,Day,Day,Day,Day
A-2986993,Source2,3,2018-02-02 16:48:09,2018-02-02 17:32:38,30.62846,-88.117867,,,0.0,Accident on I-10 Westbound before Exit 20.,I-10 W,Mobile,Mobile,AL,36605,US,US/Central,KBFM,2018-02-02 16:53:00,54.0,,31.0,30.37,10.0,NNE,12.7,,Mostly Cloudy,False,False,False,False,False,False,False,False,False,False,False,False,False,Day,Day,Day,Day
A-7059089,Source1,4,2020-06-25 19:02:19,2020-06-25 23:56:50,39.04164,-120.97372,39.18578,-120.84628000000001,12.077,Closed between Weimar Cross Rd and Magra Rd - Road closed due to accident.,I-80 E,Colfax,Placer,CA,95713,US,US/Pacific,KGOO,,,,,,,,,,,False,False,False,False,True,False,False,False,False,False,False,False,False,Day,Day,Day,Day
A-2982284,Source2,2,2018-01-31 10:58:31,2018-01-31 11:28:21,33.475216,-111.701218,,,0.0,Accident on Recker Rd at AZ-202 Loop.,AZ-202 Loop E,Mesa,Maricopa,AZ,85215,US,US/Mountain,KFFZ,2018-01-31 11:47:00,71.6,,16.0,30.03,50.0,Calm,,,Scattered Clouds,False,False,False,False,False,False,False,False,False,False,False,False,False,Day,Day,Day,Day
A-1455611,Source2,2,2020-06-02 05:43:21,2020-06-02 10:10:25,30.408249,-97.674721,,,0.0,Accident on I-35 Southbound at Parmer Ln.,W Parmer Ln,Austin,Travis,TX,78753,US,US/Central,KATT,2020-06-02 05:51:00,74.0,74.0,82.0,29.34,10.0,CALM,0.0,0.0,Mostly Cloudy,False,False,False,False,False,False,False,False,False,False,False,False,False,Night,Night,Day,Day
A-1736709,Source3,2,2019-10-06 07:56:30,2019-10-06 08:57:20,38.217567,-122.603851,,,0.0,Accident on US-101 Northbound at Exit 467 San Antonio Rd.,Redwood Hwy N,Petaluma,Sonoma,CA,94952,US,US/Pacific,KO69,,,,,,,,,,,False,False,False,False,False,False,False,False,False,False,False,False,False,Day,Day,Day,Day
A-7622163,Source1,2,2018-02-20 15:14:46,2018-02-20 21:14:46,42.428470000000004,-83.0942,42.436659999999996,-83.0948,0.5670000000000001,At 7 Mile Rd/Exit 58 - Accident.,Chrysler Fwy N,Highland Park,Wayne,MI,48203,US,US/Eastern,KDET,2018-02-20 15:21:00,61.0,,90.0,30.0,5.0,SSW,13.8,0.05,Light Rain,False,False,False,False,True,False,False,False,False,False,False,False,False,Day,Day,Day,Day
A-4442400,Source1,2,2022-11-03 12:13:30.000000000,2022-11-03 18:56:00.000000000,34.067353999999995,-117.52652900000001,34.068131,-117.388378,7.907,Slow traffic on San Bernardino Fwy E - I-10 E from I-15 (I-10) to Riverside Ave (I-10) due to accident.,I-10 E,Ontario,San Bernardino,CA,91761,US,US/Pacific,KONT,2022-11-03 11:53:00,56.0,56.0,45.0,29.03,10.0,W,3.0,0.0,Fair,False,False,False,False,False,False,False,False,False,False,False,False,False,Day,Day,Day,Day
A-4570532,Source1,2,2022-08-12 19:16:44,2022-08-12 20:31:46,36.79968,-76.08568199999998,36.799124,-76.08525300000002,0.045,Incident on HOLLAND RD near HOLLAND RD Drive with caution., Holland Rd,Virginia Beach,Virginia Beach (City),VA,23453-2828,US,US/Eastern,KNTU,2022-08-12 18:56:00,76.0,76.0,71.0,29.96,10.0,ENE,8.0,0.0,Mostly Cloudy,False,False,True,False,False,False,False,False,False,False,False,False,False,Day,Day,Day,Day
A-6081045,Source1,2,2021-12-28 16:24:42.000000,2021-12-28 19:09:42.000000,43.920854999999996,-91.391312,43.918001000000004,-91.374624,0.8540000000000001,Construction on I-90 near MN-76 Drive with caution.,I-90 E,Dakota,Winona,MN,55925,US,US/Central,KLSE,2021-12-28 16:20:00,23.0,23.0,88.0,28.89,0.75,CALM,0.0,0.02,Light Snow,False,False,False,False,False,False,False,False,False,False,False,False,False,Day,Day,Day,Day
A-7090971,Source1,2,2020-06-16 09:23:59,2020-06-16 10:08:59,40.6908,-73.58076,40.6908,-73.58076,0.0,At Meadowbrook Pky/Exit 22 - Accident.,Southern State Pkwy W,Roosevelt,Nassau,NY,11575,US,US/Eastern,KFRG,2020-06-16 09:53:00,72.0,72.0,46.0,30.3,10.0,NE,9.0,0.0,Fair,False,False,False,False,False,False,False,False,False,False,False,False,False,Day,Day,Day,Day
A-4499510,Source1,2,2022-08-12 13:09:00,2022-08-12 14:42:38,25.900138000000002,-80.169854,25.900166,-80.169256,0.037000000000000005,Incident on NE 135TH ST near HOUSE 1450 Drive with caution., NE 135th St,North Miami,Miami-Dade,FL,33161-4403,US,US/Eastern,KOPF,2022-08-12 12:53:00,91.0,91.0,53.0,30.04,10.0,ESE,13.0,0.0,Fair,False,False,True,False,False,False,False,False,True,False,False,False,False,Day,Day,Day,Day
A-4576089,Source1,2,2022-07-23 01:00:00.000000000,2022-07-23 21:12:00.000000000,36.768874,-114.217469,36.77024,-114.228569,0.622,Crash - on I-15 southbound before SR-170/Riverside Road in Mesquite Clark County Nevada. Left lane blocked. Use caution and expect delays. Estimated End Time is 8:12 PM,I-15,Mesquite,Clark,NV,89027,US,US/Mountain,KSGU,2022-07-23 00:56:00,95.0,95.0,18.0,26.84,10.0,SE,6.0,0.0,Fair,False,False,False,False,False,False,False,False,False,False,False,False,False,Night,Night,Night,Night
A-6880005,Source1,2,2020-12-02 04:54:34.000000000,2020-12-02 06:31:51.000000000,35.137721,-80.907,35.138181,-80.90794,0.062,Incident on W ARROWOOD RD near I-77 Expect delays.,W Arrowood Rd,Charlotte,Mecklenburg,NC,28217,US,US/Eastern,KCLT,2020-12-02 04:52:00,27.0,,81.0,29.37,10.0,,,0.0,Fair,False,False,False,False,False,False,False,False,False,False,False,True,False,Night,Night,Night,Night
A-3217949,Source2,3,2017-10-02 07:42:55,2017-10-02 08:42:03,44.970783,-93.340942,,,2.5199999809265137,Accident on I-394 Westbound from Exit 7 Penn Ave to Lake St.,US-12 W,Minneapolis,Hennepin,MN,55416,US,US/Central,KMSP,2017-10-02 07:53:00,55.9,,93.0,29.88,10.0,SE,8.1,,Mostly Cloudy,False,False,False,False,True,False,False,False,False,False,False,False,False,Day,Day,Day,Day
A-7161340,Source1,2,2020-04-07 20:17:56,2020-04-07 20:47:56,35.79296,-78.5848,35.79296,-78.5848,0.0,At I-440 - Accident., New Bern Ave,Raleigh,Wake,NC,27610-1221,US,US/Eastern,KRDU,2020-04-07 19:51:00,73.0,73.0,53.0,29.39,10.0,WSW,7.0,0.0,Cloudy,False,False,False,False,False,False,False,False,False,False,False,False,False,Night,Night,Day,Day
A-2509262,Source2,3,2018-10-10 08:42:56,2018-10-10 09:12:39,42.516785,-71.089539,,,0.0,Accident on 128 Southbound at North Ave.,North Ave,Wakefield,Middlesex,MA,01880,US,US/Eastern,KBVY,2018-10-10 08:53:00,72.0,,81.0,30.07,10.0,WSW,9.2,,Clear,False,False,False,False,False,False,False,False,False,False,False,False,False,Day,Day,Day,Day
A-6860005,Source1,2,2020-11-05 16:50:00,2020-11-05 18:08:35,32.72502,-117.074228,32.72562,-117.073428,0.062,Incident on CA-94 EB near KELTON RD Drive with caution.,CA-94 E,San Diego,San Diego,CA,92114,US,US/Pacific,KSAN,2020-11-05 16:51:00,76.0,76.0,37.0,29.84,10.0,W,5.0,0.0,Mostly Cloudy,False,False,False,False,True,False,False,False,False,False,False,False,False,Day,Day,Day,Day
A-5876115,Source1,2,2021-07-28 16:50:24,2021-07-28 18:41:08,35.187762,-80.88739,35.214339,-80.87284,2.012,Slow traffic on I-77 N - US-21 N from NC-49/Tryon St/Exit 6 (I-77) to I-277/US-74/Exit 9 (I-77) due to accident.,I-77 N,Charlotte,Mecklenburg,NC,28217,US,US/Eastern,KCLT,2021-07-28 16:52:00,93.0,93.0,50.0,29.18,10.0,N,9.0,0.0,Partly Cloudy,False,False,False,False,False,False,False,False,False,False,False,False,False,Day,Day,Day,Day
A-490051,Source2,2,2017-07-06 14:59:30,2017-07-06 15:50:00,29.72118900000001,-95.520309,,,0.0,Left lane blocked due to accident on Westpark Tollway Westbound at Fondren Rd.,Fondren Rd,Houston,Harris,TX,77063,US,US/Central,KMCJ,2017-07-06 16:15:00,84.2,,62.0,30.03,10.0,SSE,10.4,,Clear,False,False,False,False,False,False,False,False,False,False,False,True,False,Day,Day,Day,Day
A-4973512,Source1,2,2022-01-20 16:20:35.000000000,2022-01-20 18:25:35.000000000,25.94267300000001,-80.203561,25.941212,-80.205212,0.14400000000000002,Slow traffic on FL-7 - FL-860 - US-441 S from NE 183rd St / N Miami Ave to US-441 due to accident., NW 183rd St,Miami,Miami-Dade,FL,33169-4509,US,US/Eastern,KHWO,2022-01-20 15:53:00,75.0,75.0,79.0,30.04,10.0,SE,6.0,0.01,Cloudy,False,False,False,False,False,False,False,False,True,False,False,False,False,Day,Day,Day,Day
A-2064839,Source2,3,2019-06-21 16:20:30,2019-06-21 17:04:44,36.80682,-76.19564799999998,,,0.0,Right and center lane blocked and right hand shoulder blocked due to accident on I-64 Hampton Roads Bltwy Westbound at Exits 286A 286B VA-407 Indian River Rd.,I-64 W,Virginia Beach,Virginia Beach,VA,23464,US,US/Eastern,KORF,2019-06-21 15:59:00,85.0,85.0,43.0,29.81,10.0,WNW,17.0,0.0,Partly Cloudy,False,False,False,False,False,False,False,False,False,False,False,False,False,Day,Day,Day,Day
A-5759212,Source1,2,2021-05-09 18:19:00,2021-05-10 19:07:58,33.965771999999994,-112.733873,33.965598,-112.73515400000001,0.07400000000000001,Construction on US-60 WB near N ADAMS ST Road closed. Take alternate route., W Wickenburg Way,Wickenburg,Maricopa,AZ,85390-3217,US,US/Mountain,KLUF,2021-05-09 17:58:00,94.0,94.0,7.0,28.56,10.0,SSW,9.0,0.0,Fair,False,False,False,False,False,False,False,False,False,False,False,False,False,Day,Day,Day,Day
A-2746069,Source2,2,2018-06-06 16:44:17,2018-06-06 17:14:06,29.723055,-95.501068,,,0.0,Accident on Hillcroft Ave at Westpark Dr.,Hillcroft St,Houston,Harris,TX,77063,US,US/Central,KMCJ,,,,,,,,,,,False,False,False,False,False,False,False,False,False,False,False,True,False,Day,Day,Day,Day
A-402393,Source2,3,2017-04-06 15:34:48,2017-04-06 16:04:26,33.603928,-117.689827,,,0.01,Right hand shoulder blocked due to accident on I-5 Southbound at Exit 90 Alicia Pkwy.,San Diego Fwy S,Laguna Hills,Orange,CA,92653,US,US/Pacific,KSNA,2017-04-06 15:53:00,66.9,,66.0,29.97,10.0,SW,11.5,,Mostly Cloudy,False,False,False,False,False,False,False,False,False,False,False,False,False,Day,Day,Day,Day
A-2843622,Source2,3,2018-05-23 15:13:48,2018-05-23 15:58:26,33.843632,-118.285278,,,0.6000000238418579,Accident on exit ramp from I-110 Northbound at Exit 8 to Torrance Blvd.,Harbor Fwy N,Carson,Los Angeles,CA,90745,US,US/Pacific,KTOA,2018-05-23 14:47:00,66.2,,64.0,29.97,10.0,West,15.0,,Mostly Cloudy,False,False,False,False,False,False,False,False,False,False,False,False,False,Day,Day,Day,Day
A-1851413,Source2,3,2019-11-29 16:25:20,2019-11-29 16:54:50,32.935394,-96.901947,,,0.0,Lane blocked due to accident on I-35E Southbound at Exit 442 Harry Hines Blvd.,I-35E N,Dallas,Dallas,TX,75234,US,US/Central,KADS,2019-11-29 16:51:00,61.0,61.0,94.0,29.19,1.0,SE,13.0,0.0,Fog,False,False,False,False,False,False,False,False,False,False,False,False,False,Day,Day,Day,Day
A-3174192,Source2,2,2017-11-08 11:08:33,2017-11-08 11:38:02,42.333099,-88.029045,,,0.0,Accident on IL-83 Southbound at IL-137.,N IL Route 83,Grayslake,Lake,IL,60030-9811,US,US/Central,KUGN,2017-11-08 10:55:00,42.1,38.4,55.0,30.36,10.0,Variable,5.8,,Clear,False,False,False,False,False,False,False,False,False,False,False,True,False,Day,Day,Day,Day
A-3248465,Source2,2,2017-10-16 05:29:59,2017-10-16 05:59:45,38.092472,-121.26046,,,0.0,Accident on Highway 99 Northbound at Scottsdale Rd.,N Highway 99,Lodi,San Joaquin,CA,95240-6837,US,US/Pacific,KSCK,2017-10-16 05:55:00,46.9,,80.0,30.14,10.0,Calm,,,Clear,False,False,False,False,False,False,False,False,False,False,False,False,False,Night,Night,Night,Night
A-5657400,Source1,2,2021-07-22 11:13:00,2021-07-22 13:04:00,38.638571,-90.490706,38.638484999999996,-90.472312,0.993,Slow traffic on I-64 E - US-40 E - US-61 S from Maryville Centre Dr (US-61/US-40/I-64) to I-270/Exit 25 (I-64) due to accident.,I-64 E,Chesterfield,St. Louis County,MO,63017,US,US/Central,KSUS,2021-07-22 10:54:00,85.0,85.0,59.0,29.67,10.0,SW,6.0,0.0,Fair,False,False,False,False,True,False,False,False,False,False,False,False,False,Day,Day,Day,Day
A-1071064,Source2,3,2021-04-23 13:46:35,2021-04-23 15:01:18,41.136696,-81.794159,,,0.0,Right lane blocked due to accident on I-71 Northbound at Exit 218 OH-18 Medina Rd.,I-71 S,Medina,Medina,OH,44256,US,US/Eastern,KCLE,2021-04-23 13:51:00,58.0,58.0,37.0,29.19,10.0,WSW,21.0,0.0,Mostly Cloudy / Windy,False,False,False,False,False,False,False,False,False,False,False,False,False,Day,Day,Day,Day
A-1076780,Source2,3,2021-04-20 10:05:26,2021-04-20 11:07:00,34.136185,-117.575859,,,0.0,Left hand shoulder blocked due to accident on I-210 Westbound at Haven Ave.,Haven Ave,Rancho Cucamonga,San Bernardino,CA,91737,US,US/Pacific,KONT,2021-04-20 09:53:00,66.0,66.0,54.0,28.92,9.0,S,5.0,0.0,Fair,False,False,False,False,False,False,False,False,False,False,False,False,False,Day,Day,Day,Day
A-2487753,Source2,2,2018-11-29 18:23:59,2018-11-29 19:08:45,34.099304,-117.4888,,,0.0,Accident on Arrow Blvd at Cherry Ave.,Cherry Ave,Fontana,San Bernardino,CA,92335-3028,US,US/Pacific,KONT,2018-11-29 18:01:00,50.0,,93.0,29.81,8.0,WSW,5.8,0.01,Rain,False,False,True,False,False,False,False,False,False,False,False,True,False,Night,Night,Night,Night
A-3444484,Source1,2,2016-07-23 17:03:31,2016-07-23 23:03:31,44.8597,-93.366,44.85913,-93.35648,0.46799999999999997,At CR-28/Bush Lake Rd/Exit 8 - Accident.,MN-5 E,Minneapolis,Hennepin,MN,55438,US,US/Central,KFCM,2016-07-23 17:07:00,73.0,,90.0,29.84,10.0,ENE,6.9,0.0,Overcast,False,False,False,False,False,False,False,False,False,False,False,False,False,Day,Day,Day,Day
A-725910,Source2,2,2022-02-02 07:54:13,2022-02-02 08:51:39,28.476887,-82.525314,,,0.0,Accident on Linden Dr near Grayton Dr.,Linden Dr,Spring Hill,Hernando,FL,34609-3533,US,US/Eastern,KBKV,2022-02-02 07:53:00,53.0,53.0,89.0,30.09,10.0,E,9.0,0.0,Fair,False,False,False,False,False,False,False,False,False,False,False,False,False,Day,Day,Day,Day
A-1962472,Source2,2,2019-07-11 10:35:10,2019-07-11 11:35:20,35.435181,-97.554604,,,0.0,Accident on 29th St at Agnew Ave.,SW 29th St,Oklahoma City,Oklahoma,OK,73119-2002,US,US/Central,KOKC,2019-07-11 10:52:00,83.0,83.0,51.0,28.73,10.0,NE,15.0,0.0,Mostly Cloudy,False,False,True,False,False,False,False,False,False,False,False,True,False,Day,Day,Day,Day
A-5604310,Source1,2,2021-04-27 00:36:49,2021-04-27 02:12:52,44.803641999999996,-93.290133,44.812834,-93.29123299999999,0.637,Incident on I-35W NB near MINNESOTA RIV Drive with caution.,I-35W N,Minneapolis,Hennepin,MN,55420,US,US/Central,KMSP,2021-04-27 00:53:00,43.0,38.0,86.0,28.84,10.0,NNE,9.0,0.0,Mostly Cloudy,False,False,False,False,False,False,False,False,False,False,False,False,False,Night,Night,Night,Night
A-3426939,Source1,2,2016-12-20 07:52:06,2016-12-20 13:52:06,35.46075,-97.56904,35.46039000000001,-97.58062,0.652,At I-44/OK-3/Exit 147 - Accident.,US-270 W,Oklahoma City,Oklahoma,OK,73108,US,US/Central,KOKC,2016-12-20 07:52:00,27.0,20.5,49.0,30.38,10.0,SSW,5.8,,Partly Cloudy,False,False,False,False,False,False,False,False,False,False,False,False,False,Day,Day,Day,Day
A-977441,Source2,2,2021-07-06 06:20:19,2021-07-06 07:18:15,40.803238,-73.321136,,,0.0,Accident on I-495 Westbound at Carlls Straight Path.,Long Island Expy W,Huntington Station,Suffolk,NY,11746,US,US/Eastern,KFRG,2021-07-06 05:53:00,72.0,72.0,76.0,29.93,10.0,SW,8.0,0.0,Fair,False,False,False,False,False,False,False,False,False,False,False,False,False,Day,Day,Day,Day
A-1226189,Source2,2,2020-12-16 05:33:50,2020-12-16 07:03:07,39.353001,-77.3937,,,0.0,Right hand shoulder blocked due to accident on I-270 Southbound at Baker Valley Rd.,Dwight D Eisenhower Hwy S,Frederick,Frederick,MD,21704,US,US/Eastern,KFDK,2020-12-16 04:35:00,28.0,23.0,80.0,29.99,10.0,N,5.0,0.0,Fair,False,False,False,False,False,False,False,False,False,False,False,False,False,Night,Night,Night,Night
A-3655410,Source1,2,2023-03-18 16:34:30.000000000,2023-03-18 18:36:30.000000000,37.590647,-121.87004499999999,37.606362,-121.833353,2.283,Stationary traffic on CA-84 from Pleasanton Sunol Rd/Paloma Rd (Niles Canyon Rd/CA-84) to Vallecitos Rd (Isabel Ave/CA-84) due to accident.,CA-84,Sunol,Alameda,CA,94586,US,US/Pacific,KLVK,2023-03-18 16:53:00,64.0,64.0,63.0,29.51,10.0,NE,9.0,0.0,Fair,False,False,False,False,False,False,False,False,False,False,False,False,False,Day,Day,Day,Day
A-290430,Source2,2,2016-10-12 06:41:01,2016-10-12 07:25:33,32.936615,-96.761177,,,0.0,Accident on Midpark Rd between Goldmark Dr and Maham Rd.,Midpark Rd,Dallas,Dallas,TX,75240,US,US/Central,KADS,2016-10-12 06:47:00,73.4,,94.0,30.04,10.0,SSE,10.4,,Mostly Cloudy,False,False,True,False,False,False,False,False,False,False,False,True,False,Night,Night,Day,Day
A-5906057,Source1,2,2021-08-24 16:11:30.000000000,2021-08-24 17:00:00.000000000,33.507424,-117.650076,33.516459999999995,-117.630518,1.288,Stationary traffic on CA-74 from Rancho Viejo Rd (CA-74) to Antonio Pkwy (CA-74) due to accident., Ortega Hwy,San Juan Capistrano,Orange,CA,92675,US,US/Pacific,KSNA,2021-08-24 15:53:00,77.0,77.0,56.0,29.83,10.0,WSW,8.0,0.0,Fair,False,False,False,False,False,False,False,False,False,False,False,False,False,Day,Day,Day,Day
A-3465572,Source1,3,2016-10-30 19:15:19,2016-10-31 01:15:19,35.89845,-78.78516,35.89566,-78.7909,0.375,At Lumley Rd/Exit 3 - Accident.,I-540 W,Morrisville,Wake,NC,27560,US,US/Eastern,KRDU,2016-10-30 18:51:00,70.0,,65.0,29.99,10.0,WSW,4.6,,Mostly Cloudy,False,False,False,False,False,False,False,False,False,False,False,False,False,Night,Night,Day,Day
A-2134151,Source2,2,2019-04-30 14:54:59,2019-04-30 16:47:13,35.41394000000001,-97.554573,,,0.0,Accident on 51st St at Agnew Ave.,SW 51st St,Oklahoma City,Oklahoma,OK,73119-4847,US,US/Central,KOKC,2019-04-30 14:52:00,73.0,73.0,90.0,28.42,8.0,S,17.0,0.0,Cloudy,False,False,False,False,False,False,False,False,False,False,False,False,False,Day,Day,Day,Day
A-6824923,Source1,2,2020-09-19 20:25:00,2020-09-19 22:50:46,40.535653,-77.379959,40.54457,-77.368884,0.847,Incident on PA-75 NB near E RIVER RD Drive with caution., W River Rd,Mifflintown,Juniata,PA,17059,US,US/Eastern,KUNV,2020-09-19 20:53:00,48.0,48.0,50.0,28.98,10.0,CALM,0.0,0.0,Fair,False,False,False,False,False,False,False,False,False,False,False,False,False,Night,Night,Night,Day
A-3909895,Source1,2,2022-04-13 01:07:00,2022-04-13 01:25:00,40.294128656195184,-111.72549605316291,40.3016586561952,-111.72562605316291,0.52,Slow traffic on I-15 N from UT-265/W University Pkwy/Exit 272 (I-15) to Center St/Exit 274 (I-15) due to accident.,I-15,Orem,Utah,UT,84058,US,US/Mountain,KPVU,2022-04-13 01:06:00,28.0,28.0,86.0,25.41,10.0,E,3.0,0.0,Mostly Cloudy,False,False,False,False,False,False,False,False,False,False,False,False,False,Night,Night,Night,Night
A-3487764,Source1,2,2016-08-08 18:30:44,2016-08-09 00:30:44,38.701734,-90.343855,38.70745,-90.33556,0.597,At MO-180/St Charles Rock/Exit 5 - Accident.,I-170 N,Saint Louis,St. Louis County,MO,63114,US,US/Central,KSTL,2016-08-08 18:51:00,84.9,,51.0,29.9,10.0,East,8.1,,Mostly Cloudy,False,False,False,False,False,False,False,False,False,False,False,False,False,Day,Day,Day,Day
A-6588106,Source1,2,2020-10-26 12:35:00,2020-10-26 15:43:04,30.419016,-97.747271,30.418929,-97.74725699999999,0.006,Incident on RESEARCH BLVD SERVICE RD SB near DUVAL RD Drive with caution.,Duval Rd,Austin,Travis,TX,78759,US,US/Central,KATT,2020-10-26 12:22:00,65.0,65.0,90.0,29.28,10.0,NE,10.0,0.0,Cloudy,False,False,True,False,False,False,False,False,False,False,False,True,False,Day,Day,Day,Day
A-3555272,Source1,4,2016-07-22 18:58:19,2016-07-23 00:58:19,34.429085,-119.294036,34.42473,-119.30476999999999,0.682,Closed at Burnham Rd/Los Encinos Rd - Road closed due to accident., Baldwin Rd,Ojai,Ventura,CA,93023-3811,US,US/Pacific,KOXR,2016-07-22 18:51:00,71.1,,68.0,29.83,8.0,WSW,9.2,,Clear,False,False,False,False,False,False,False,False,False,False,False,False,False,Day,Day,Day,Day
A-2351172,Source2,2,2019-01-22 08:12:23,2019-01-22 08:58:00,35.742939,-78.680481,,,0.0,Accident on Lake Wheeler Rd Eastbound at Tryon Rd.,Tryon Rd,Raleigh,Wake,NC,27603,US,US/Eastern,KRDU,2019-01-22 07:51:00,19.0,12.3,52.0,30.7,10.0,ENE,4.6,,Mostly Cloudy,False,False,True,False,False,False,False,False,False,False,False,True,False,Day,Day,Day,Day
A-2476874,Source2,2,2018-11-22 23:59:38,2018-11-23 00:44:24,33.818993,-118.298172,,,0.0,Accident on 228th St both ways near Normandie Ave.,W 228th St,Torrance,Los Angeles,CA,90501,US,US/Pacific,KTOA,2018-11-22 19:47:00,62.6,,77.0,30.18,10.0,West,5.8,,Partly Cloudy,False,False,False,False,False,False,False,False,False,False,False,True,False,Night,Night,Night,Night
A-1582585,Source2,3,2020-01-09 08:20:49,2020-01-09 09:36:18,40.826118,-73.860977,,,0.9300000071525574,Accident on entry ramp to I-278 Westbound from White Plains Rd.,Bruckner Blvd,Bronx,Bronx,NY,10472-6509,US,US/Eastern,KLGA,2020-01-09 07:51:00,24.0,11.0,51.0,30.68,10.0,NW,16.0,0.0,Fair,False,False,True,False,False,False,False,False,False,True,False,False,False,Day,Day,Day,Day
A-5479850,Source1,2,2021-12-26 18:22:30,2021-12-26 20:06:30,41.264247,-122.27568000000001,41.186152,-122.287621,5.431,Slow traffic on I-5 S from CA-89/Exit 736 (I-5) to RR Park Rd/Exit 728 (I-5) due to accident.,I-5 S,Mount Shasta,Siskiyou,CA,96067,US,US/Pacific,KMHS,2021-12-26 18:24:00,31.0,31.0,85.0,26.05,2.0,CALM,0.0,0.0,Light Snow,False,False,False,False,False,False,False,False,False,False,False,False,False,Night,Night,Night,Day
A-4337755,Source1,2,2022-08-13 20:22:00,2022-08-13 20:55:30,45.532556,-122.632547,45.527343,-122.608876,1.2009999999999998,Slow traffic on I-84 E - US-30 E from Lloyd Blvd/NE 1st Ave/Exit 1 (I-84) to 60th Ave/Exit 3 (I-84) due to accident.,I-84 E,Portland,Multnomah,OR,97232,US,US/Pacific,KPDX,2022-08-13 19:53:00,74.0,74.0,53.0,30.1,10.0,NNW,7.0,0.0,Fair,False,False,False,False,False,False,False,False,False,False,False,False,False,Night,Day,Day,Day
A-3586397,Source1,2,2017-03-08 14:56:45,2017-03-08 20:56:45,33.680421,-112.403879,33.67991,-112.40328000000001,0.049,At AZ-303-loop - Accident.,Bob Stump Memorial Pkwy,Surprise,Maricopa,AZ,85387,US,US/Mountain,KLUF,2017-03-08 14:58:00,81.3,,14.0,29.99,10.0,Calm,,,Clear,False,False,False,False,False,False,False,False,False,False,False,False,False,Day,Day,Day,Day
A-3329527,Source2,3,2017-09-24 16:17:30,2017-09-24 17:16:53,36.435516,-120.394203,,,0.0,#1 lane blocked due to accident on I-5 Southbound at Exit 349 CA-33.,Westside Fwy S,Coalinga,Fresno,CA,93210,US,US/Pacific,KNLC,2017-09-24 15:56:00,84.9,,16.0,29.89,,North,,,Clear,False,False,False,False,False,False,False,False,False,False,False,False,False,Day,Day,Day,Day
A-3810967,Source1,2,2022-05-01 06:37:00,2022-05-01 08:41:56,35.549778,-120.53238200000001,35.55210200000001,-120.53353700000001,0.17300000000000001,Accident on CA-41 (Creston Rd) from Camp 8 Rd (Creston Rd) to CA-229., Creston Rd,Paso Robles,San Luis Obispo,CA,93446-9491,US,US/Pacific,KPRB,2022-05-01 06:53:00,46.0,41.0,83.0,29.05,10.0,NNW,12.0,0.0,Fair,False,False,False,False,False,False,False,False,False,False,False,False,False,Day,Day,Day,Day
A-5597587,Source1,2,2021-07-01 11:44:40,2021-07-01 13:00:01,40.110704999999996,-75.771807,40.112749,-75.773883,0.179,Incident on LITTLE CONESTOGA RD near TURTLE NEST LN Drive with caution., Little Conestoga Rd,Glenmoore,Chester,PA,19343-1827,US,US/Eastern,KMQS,2021-07-01 11:35:00,73.0,73.0,94.0,29.24,4.0,W,5.0,0.0,Light Rain,False,False,False,False,False,False,False,False,False,False,False,False,False,Day,Day,Day,Day
A-6347830,Source1,2,2021-02-06 01:02:02,2021-02-06 03:09:21,34.738766,-92.283188,34.738925,-92.284369,0.068,Incident on W 12TH ST near S CHESTER ST Drive with caution., W 12th St,Little Rock,Pulaski,AR,72202-4706,US,US/Central,KLIT,2021-02-06 00:53:00,42.0,42.0,60.0,29.7,10.0,CALM,0.0,0.0,Cloudy,False,False,True,False,False,False,False,False,False,False,False,False,False,Night,Night,Night,Night
A-2006304,Source2,3,2019-08-05 17:58:25,2019-08-05 18:37:54,34.200737,-118.338737,,,0.0,#4 lane blocked due to accident on I-5 Northbound at Exit 148 Buena Vista St.,Golden State Fwy N,Burbank,Los Angeles,CA,91504,US,US/Pacific,KBUR,2019-08-05 17:53:00,87.0,87.0,32.0,29.03,10.0,SE,9.0,0.0,Fair,False,False,True,False,False,False,False,False,False,False,False,True,False,Day,Day,Day,Day
A-4199399,Source1,2,2022-07-16 12:19:00,2022-07-16 13:34:59,30.63937783,-81.45595193,30.63948783,-81.45596193,0.008,Incident on S 14TH ST near SADLER RD Expect delays., S 14th St,Fernandina Beach,Nassau,FL,32034-4408,US,US/Eastern,KFHB,2022-07-16 12:15:00,88.0,88.0,62.0,30.08,10.0,ENE,12.0,0.0,Partly Cloudy,False,False,True,False,False,False,False,False,False,False,False,True,False,Day,Day,Day,Day
A-4106668,Source1,4,2022-05-17 18:00:01,2022-05-17 19:16:05,40.961394,-85.073738,40.96337,-85.075188,0.156,Incident on US-27 NB near FLATROCK RD Road closed. Take alternate route.,Flatrock Rd,Fort Wayne,Allen,IN,46816,US,US/Eastern,KFWA,2022-05-17 17:54:00,70.0,70.0,38.0,29.14,10.0,NNW,6.0,0.0,Mostly Cloudy,False,False,False,False,False,False,False,False,False,False,False,False,False,Day,Day,Day,Day
A-4790335,Source1,2,2023-02-14 16:08:30.000000000,2023-02-14 17:20:00.000000000,45.895258,-111.49343300000001,45.855123,-111.34754,7.546,Slow traffic on I-90 E from MT-2/CR-205/Exit 278 (I-90) to CR-346/CR-288/Exit 288 (I-90) due to accident.,I-90 E,Three Forks,Gallatin,MT,59752,US,US/Mountain,KBZN,2023-02-14 15:56:00,20.0,6.0,68.0,25.31,10.0,NNW,16.0,0.0,Partly Cloudy,False,False,False,False,False,False,False,False,False,False,False,False,False,Day,Day,Day,Day
A-5652405,Source1,2,2021-09-15 18:36:00,2021-09-15 19:54:03,38.660818,-121.387363,38.660818,-121.38819099999999,0.045,Incident on PEACEKEEPER WAY near DUDLEY BLVD Drive with caution., Peacekeeper Way,Mcclellan,Sacramento,CA,95652-2605,US,US/Pacific,KMCC,2021-09-15 18:35:00,81.0,81.0,34.0,29.66,10.0,SSW,13.0,0.0,Fair,False,False,False,False,False,False,False,False,False,False,False,False,False,Day,Day,Day,Day
A-2866171,Source3,2,2018-04-05 14:08:46,2018-04-05 14:38:30,42.167503,-71.893898,,,0.0,Accident on US-20 Southbridge Rd Westbound at MA-56 Leicester St.,Southbridge Rd,North Oxford,Worcester,MA,01537-1210,US,US/Eastern,KORH,2018-04-05 13:54:00,34.0,21.0,37.0,29.94,10.0,West,26.5,,Partly Cloudy,False,False,False,False,False,False,False,False,False,False,False,True,False,Day,Day,Day,Day
A-3371153,Source2,3,2017-08-11 16:26:34,2017-08-11 16:55:44,26.081427,-80.1688,,,2.799999952316284,Accident on I-95 Express Southbound between Davie Blvd and FL-84. Express lanes blocked.,I-95 S,Fort Lauderdale,Broward,FL,33315,US,US/Eastern,KFLL,2017-08-11 16:29:00,81.0,,74.0,30.03,7.0,WNW,4.6,0.24,Light Rain,False,False,False,False,False,False,False,False,False,False,False,False,False,Day,Day,Day,Day
A-1319976,Source2,3,2020-09-30 22:31:35,2020-09-30 23:31:10,26.439362,-80.089226,,,0.0,Three lanes blocked due to accident on I-95 Northbound at Exit 51 CR-782 Linton Blvd.,Linton Blvd,Delray Beach,Palm Beach,FL,33444,US,US/Eastern,KBCT,2020-09-30 22:25:00,79.0,79.0,90.0,29.96,9.0,NNE,6.0,0.0,Thunder in the Vicinity,False,False,False,False,False,False,False,False,False,False,False,False,False,Night,Night,Night,Night
A-5114232,Source1,2,2022-04-07 00:19:58,2022-04-07 02:20:15,44.238671064165885,-92.6507842536323,44.224301064165886,-92.6508442536323,0.993,Incident on US-52 near 500TH ST Drive with caution., Highway 52 Blvd,Pine Island,Goodhue,MN,55963-7601,US,US/Central,K9MN,2022-04-07 00:15:00,35.0,24.0,89.0,28.24,10.0,WSW,18.0,0.0,Cloudy,False,False,False,True,False,False,False,False,False,True,False,False,False,Night,Night,Night,Night
A-2043801,Source2,2,2019-06-10 09:55:25,2019-06-10 10:25:05,36.528591,-120.484795,,,0.0,Accident on I-5 Northbound at Exit 357 Kamm Ave. On the median.,I-5 N,Mendota,Fresno,CA,93640,US,US/Pacific,KMAE,2019-06-10 09:53:00,89.0,89.0,32.0,29.76,10.0,SSW,8.0,0.0,Partly Cloudy,False,False,False,False,True,False,False,False,False,False,False,False,False,Day,Day,Day,Day
A-5354765,Source1,2,2022-07-11 20:26:05,2022-07-11 22:36:30,41.970919,-72.290491,41.975103999999995,-72.291227,0.292,ConnDOT: East Street (Rt 19) CLOSED at Furnace Hollow Road because of a Crash (2 Vehicle). Reported Monday July 11 at 8:24 pm.,Furnace Hill Rd,Stafford Springs,Capitol,CT,06076,US,US/Eastern,KIJD,2022-07-11 20:52:00,70.0,70.0,71.0,29.6,10.0,S,8.0,0.0,Fair,False,False,False,False,False,False,False,False,False,False,False,False,False,Night,Day,Day,Day
A-1728684,Source2,2,2019-12-20 08:54:42,2019-12-20 09:54:34,38.972691,-84.66256700000002,,,0.0,Accident on KY-237 Pleasant Valley Rd at US-127.,Gunpowder Rd,Florence,Boone,KY,41042-9619,US,US/Eastern,KCVG,2019-12-20 08:52:00,29.0,29.0,78.0,29.53,7.0,CALM,0.0,0.0,Mostly Cloudy,False,False,True,False,False,False,False,False,False,False,False,True,False,Day,Day,Day,Day
A-4413329,Source1,2,2022-01-18 07:44:30,2022-01-18 08:26:00,38.727976083570816,-104.73585247943527,38.761036083570815,-104.77113247943527,2.972,Slow traffic on I-25 N from CO-16/Exit 132 (I-25) to CO-83/Academy Blvd/Exit 135 (I-25) due to accident.,I-25,Fountain,El Paso,CO,80817,US,US/Mountain,KFCS,2022-01-18 07:58:00,33.0,26.0,43.0,24.04,10.0,NNW,9.0,0.0,Fair,False,False,False,False,False,False,False,False,False,False,False,False,False,Day,Day,Day,Day
A-6280345,Source1,2,2021-03-08 08:02:34.000000000,2021-03-08 09:10:41.000000000,30.411901,-81.748163,30.388271000000003,-81.759117,1.758,Stationary traffic on I-295 S - W Beltway S from FL-104/Dunn Ave/Exit 12 (I-295) to Pritchard Rd/Exit 10 (I-295) due to accident.,W Beltway S,Jacksonville,Duval,FL,32219,US,US/Eastern,KJAX,2021-03-08 07:56:00,46.0,46.0,79.0,30.45,10.0,N,3.0,0.0,Fair,False,False,False,False,True,False,False,False,False,False,False,False,False,Day,Day,Day,Day
A-1811060,Source2,3,2019-11-11 18:25:35,2019-11-11 19:57:11,38.26054,-85.729843,,,0.8899999856948853,Entry ramp to I-71 Northbound from I-64 Eastbound lane blocked due to accident.,I-71 N,Louisville,Jefferson,KY,40206,US,US/Eastern,KLOU,2019-11-11 18:02:00,39.0,31.0,82.0,29.47,5.0,NNW,13.0,0.0,Light Rain,False,False,False,False,False,False,False,False,False,False,False,False,False,Night,Night,Day,Day
A-2039182,Source2,3,2019-06-07 12:11:59,2019-06-07 15:18:56,44.968632,-93.251747,,,0.0,Lane blocked due to accident on I-94 Westbound at I-94 Exits 233B / I-35W Exits 16B / MN-55 Hiawatha Ave.,15th Ave S,Minneapolis,Hennepin,MN,55454,US,US/Central,KMSP,2019-06-07 11:53:00,86.0,86.0,43.0,29.02,10.0,SSW,9.0,0.0,Partly Cloudy,False,False,True,False,False,False,False,False,False,False,False,False,False,Day,Day,Day,Day
A-5576396,Source1,2,2021-11-25 18:41:00,2021-11-25 21:30:00,33.908011,-84.23164799999998,33.901232,-84.244068,0.852,Incident on I-85 SB near PLEASANTDALE RD Expect long delays.,GA-403 S,Norcross,Gwinnett,GA,30071,US,US/Eastern,KPDK,2021-11-25 18:53:00,53.0,53.0,66.0,29.03,10.0,SSW,5.0,0.0,Fair,False,False,False,False,False,False,False,False,False,False,False,False,False,Night,Night,Night,Day
A-7269504,Source1,2,2020-02-19 07:46:30,2020-02-19 08:18:17,33.991009999999996,-117.55028999999999,33.99096,-117.55027,0.004,At Limonite Ave - Accident., Bellegrave Ave,Mira Loma,Riverside,CA,91752,US,US/Pacific,KRAL,2020-02-19 07:53:00,53.0,53.0,86.0,29.2,2.0,SSW,5.0,0.0,Fog,False,False,False,False,False,False,False,False,False,False,False,False,False,Day,Day,Day,Day
A-1187426,Source2,3,2021-01-20 16:56:41,2021-01-20 17:56:24,45.290531,-93.768631,,,0.0,Accident on I-94 Westbound at Exit 194 CR-18 Fenning Ave.,I-94 W,Monticello,Wright,MN,55362,US,US/Central,KMGG,2021-01-20 16:59:00,39.0,32.0,61.0,28.48,10.0,W,13.0,0.0,Fair,False,False,False,False,False,False,False,False,False,False,False,False,False,Day,Day,Day,Day
A-5100740,Source1,2,2022-04-27 09:42:00,2022-04-27 11:40:30,34.000883,-117.844104,33.998166,-117.859195,0.885,Slow traffic on Pomona Fwy W - CA-60 W from CA-57/Orange Fwy (CA-60) to Fairway Dr (CA-60) due to accident.,CA-60 W,Walnut,Los Angeles,CA,91789,US,US/Pacific,KPOC,2022-04-27 09:47:00,63.0,63.0,63.0,28.92,7.0,CALM,0.0,,Fair,False,False,False,False,False,False,False,False,False,False,False,False,False,Day,Day,Day,Day
A-5743102,Source1,4,2021-04-04 22:50:24,2021-04-05 02:39:18,39.936048,-75.04839399999999,39.936136,-75.04723299999998,0.062,Incident on NJ-38 EB near COUNTY HWY-636 Road closed. Take alternate route., State Highway 38,Cherry Hill,Camden,NJ,08002-2956,US,US/Eastern,KVAY,2021-04-04 22:54:00,56.0,56.0,29.0,29.97,10.0,NNW,14.0,0.0,Fair,False,False,False,False,False,False,False,False,False,False,False,False,False,Night,Night,Night,Night
A-2571309,Source2,3,2018-09-06 23:44:16,2018-09-07 00:13:45,33.719509,-117.973038,,,0.20000000298023224,Entry ramp to I-405 Eastbound from Magnolia St Southbound shoulder blocked due to accident.,Rockcreek Cir,Huntington Beach,Orange,CA,92647-5050,US,US/Pacific,KSLI,2018-09-06 23:58:00,64.8,,88.0,30.01,10.0,WNW,5.8,,Clear,False,False,False,False,False,False,False,False,False,False,False,False,False,Night,Night,Night,Night
A-3227454,Source2,3,2017-10-05 09:55:14,2017-10-05 10:40:04,38.248653,-122.071365,,,0.0,Accident on I-80 Westbound at Exits 44 44B Texas St.,I-80 W,Fairfield,Solano,CA,94533,US,US/Pacific,KSUU,2017-10-05 09:58:00,66.0,,32.0,30.05,10.0,North,4.6,,Clear,False,False,False,False,False,False,False,False,False,False,False,True,False,Day,Day,Day,Day
A-6133057,Source1,2,2021-08-12 08:58:30,2021-08-12 09:13:00,37.701158,-121.853876,37.701054,-121.841475,0.6779999999999999,Slow traffic on I-580 E from Santa Rita Rd/Tassajara Rd (I-580) to Airway Blvd (I-580) due to accident.,I-580 E,Pleasanton,Alameda,CA,94588,US,US/Pacific,KLVK,2021-08-12 08:53:00,71.0,71.0,55.0,29.55,10.0,WSW,5.0,0.0,Fair,False,False,False,False,True,False,False,False,False,False,False,False,False,Day,Day,Day,Day
A-3517598,Source1,3,2016-04-10 15:32:34,2016-04-10 21:32:34,40.68248,-73.66561999999998,40.68409000000001,-73.64353,1.163,Between Hempstead Ave/Exit 17 and Eagle Ave/Exit 18 - Accident.,Southern State Pkwy E,Malverne,Nassau,NY,11565,US,US/Eastern,KJFK,2016-04-10 15:51:00,46.0,39.0,39.0,30.3,10.0,South,17.3,,Scattered Clouds,False,False,False,False,False,False,False,False,False,False,False,False,False,Day,Day,Day,Day
A-4902948,Source1,4,2022-09-20 05:30:00,2022-09-20 06:49:10,40.195723,-74.815151,40.196688,-74.80487099999998,0.547,Incident on LINCOLN HWY EB near TRENTON AVE Road closed. Take alternate route.,Lincoln Hwy,Fairless Hills,Bucks,PA,19030,US,US/Eastern,KTTN,2022-09-20 05:53:00,65.0,65.0,97.0,29.65,8.0,WNW,6.0,0.0,Fair,False,False,False,False,False,False,False,False,False,False,False,True,False,Night,Night,Night,Day
A-2781718,Source2,3,2018-06-25 15:22:18,2018-06-25 15:51:33,39.56638,-104.872444,,,0.0,Centre and right lane blocked due to accident on I-25 Southbound at Exit 195 County Line Rd.,E County Line Rd,Englewood,Arapahoe,CO,80112,US,US/Mountain,KAPA,2018-06-25 14:53:00,80.1,,25.0,29.9,10.0,NNE,10.4,,Partly Cloudy,False,False,False,False,False,False,False,False,False,False,False,False,False,Day,Day,Day,Day
A-2785359,Source2,2,2018-06-27 11:03:18,2018-06-27 11:32:52,35.904587,-78.588371,,,0.0,Accident on Durant Rd at Falls River Ave.,Falls River Ave,Raleigh,Wake,NC,27614,US,US/Eastern,KRDU,2018-06-27 10:51:00,73.9,,91.0,30.05,10.0,Calm,,,Mostly Cloudy,False,False,True,False,False,False,False,False,False,False,False,True,False,Day,Day,Day,Day
A-2465558,Source2,2,2018-11-19 06:00:19,2018-11-19 06:30:06,40.11631,-75.349174,,,0.0,Accident on US-202 Markley St at Main St.,Markley St,Norristown,Montgomery,PA,19401,US,US/Eastern,KLOM,2018-11-19 05:55:00,32.0,,100.0,30.15,1.0,Calm,,,Overcast,False,False,True,False,False,False,True,False,False,False,False,True,False,Night,Night,Day,Day
A-4861281,Source1,2,2022-01-19 12:57:00.000000000,2022-01-19 14:12:40.000000000,28.268090486391696,-82.28625655135018,28.280940486391696,-82.27879655135018,0.997,Incident on CURLEY RD near OVERPASS RD Drive with caution., Curley Rd,Wesley Chapel,Pasco,FL,33545,US,US/Eastern,KZPH,2022-01-19 12:55:00,75.0,,47.0,30.04,10.0,,,0.0,Partly Cloudy,False,False,False,False,False,False,False,False,False,False,False,True,False,Day,Day,Day,Day
A-7286341,Source1,2,2019-12-23 00:22:00,2019-12-23 00:54:55,34.14755,-118.08203799999998,34.14755,-118.08203799999998,0.0,At Madre St - Accident.,Foothill Fwy E,Pasadena,Los Angeles,CA,91107,US,US/Pacific,KMWS,,,,,,,,,,,False,False,False,False,False,False,True,False,False,False,False,False,False,Night,Night,Night,Night
A-41933,Source2,3,2016-06-11 17:35:48,2016-06-11 18:35:48,37.632156,-122.437218,,,0.0,Slow lane blocked due to accident on I-280 Southbound at Exits 43A 43B I-380.,I-280 S,San Bruno,San Mateo,CA,94066,US,US/Pacific,KSFO,2016-06-11 17:56:00,71.1,,41.0,29.89,10.0,West,24.2,,Scattered Clouds,False,False,False,False,False,False,False,False,False,False,False,False,False,Day,Day,Day,Day
A-4063742,Source1,2,2022-12-23 12:32:00.000000000,2022-12-23 16:17:00.000000000,45.058332,-123.629775,45.018322,-123.869276,12.015999999999998,Slow traffic on OR-18 from Grand Ronde Rd (OR-18) to N Bear Creek Rd (Salmon River Hwy/OR-18) due to accident., A.R. Ford Rd,Grand Ronde,Polk,OR,97347,US,US/Pacific,KMMV,2022-12-23 12:25:00,27.0,27.0,89.0,29.98,10.0,E,3.0,0.0,Cloudy,False,False,False,False,False,False,False,False,False,False,False,False,False,Day,Day,Day,Day
A-457181,Source2,3,2017-06-29 17:53:51,2017-06-29 18:23:51,37.701889,-121.993454,,,0.0,Accident on I-580 Eastbound in Livermore.,I-580 E,Castro Valley,Alameda,CA,94552,US,US/Pacific,KHWD,2017-06-29 17:54:00,64.0,,65.0,30.01,10.0,West,11.5,,Scattered Clouds,False,False,False,False,False,False,False,False,False,False,False,False,False,Day,Day,Day,Day
A-3276934,Source2,2,2017-08-31 10:05:16,2017-08-31 10:34:36,43.14724,-77.558014,,,0.0,Accident on Probert St at University Ave.,University Ave,Rochester,Monroe,NY,14610-1837,US,US/Eastern,KROC,2017-08-31 09:54:00,63.0,,78.0,30.06,10.0,North,13.8,,Overcast,False,False,True,False,False,False,False,False,False,True,False,False,False,Day,Day,Day,Day
A-1611979,Source2,3,2020-01-25 13:50:48,2020-01-25 14:20:22,34.078388000000004,-81.15316800000002,,,0.0,Accident on I-26 Westbound at Exit 103 Harbison Blvd.,I-26 W,Columbia,Richland,SC,29212,US,US/Eastern,KCAE,2020-01-25 13:56:00,53.0,53.0,55.0,29.71,10.0,W,15.0,0.0,Mostly Cloudy,False,False,False,False,False,False,False,False,False,False,False,False,False,Day,Day,Day,Day
A-5070515,Source1,2,2022-01-29 18:18:00.000000000,2022-01-29 18:53:30.000000000,33.855805,-118.018196,33.855940999999994,-118.00263000000001,0.893,Slow traffic on Artesia Fwy E - CA-91 E from Valley View St (CA-91) to CA-39/Beach Blvd (CA-91) due to accident.,Artesia Fwy E,Buena Park,Orange,CA,90620,US,US/Pacific,KFUL,2022-01-29 17:53:00,62.0,62.0,26.0,29.95,10.0,CALM,0.0,0.0,Mostly Cloudy,False,False,False,False,False,False,False,False,False,False,False,False,False,Night,Night,Night,Day
A-6526331,Source1,2,2021-01-24 01:09:00,2021-01-24 02:24:42,27.26039500000001,-82.52248399999998,27.260645,-82.522194,0.025,Incident on STICKNEY POINT RD near S TAMIAMI TRL Drive with caution.,Stickney Point Rd,Sarasota,Sarasota,FL,34231,US,US/Eastern,KSRQ,2021-01-24 00:53:00,66.0,66.0,93.0,30.04,10.0,E,8.0,0.0,Cloudy,False,False,True,False,False,False,False,False,False,False,False,True,False,Night,Night,Night,Night
A-7231429,Source1,2,2020-01-20 12:18:00,2020-01-20 13:49:54,36.898503999999996,-121.74793400000001,36.898503999999996,-121.74793400000001,0.0,At CR-G11/San Juan Rd - Accident., Salinas Rd,Royal Oaks,Monterey,CA,95076-5257,US,US/Pacific,KWVI,2020-01-20 11:53:00,55.0,55.0,64.0,29.89,10.0,NW,5.0,0.0,Cloudy,False,False,False,False,False,False,False,False,False,False,False,False,False,Day,Day,Day,Day
A-3023051,Source2,3,2018-02-20 16:12:20,2018-02-20 16:42:01,29.89307800000001,-97.912514,,,0.0,#1 lane blocked due to accident on I-35 Southbound at TX-82 Loop Aquarena Springs Dr.,Aquarena Springs Dr,San Marcos,Hays,TX,78666,US,US/Central,KHYI,2018-02-20 16:09:00,71.6,,94.0,29.88,10.0,SSE,13.8,0.0,Light Rain,False,False,False,False,False,False,False,False,False,False,False,False,False,Day,Day,Day,Day
A-7695112,Source1,4,2017-08-14 16:21:41,2017-08-14 22:21:42,44.609722999999995,-71.218763,44.596101000000004,-71.198596,1.368,Closed at RT-110B/Milan Hill Rd - Road closed due to accident. 3 lanes closed., Pontook Estates Rd,Milan,Coos,NH,03588,US,US/Eastern,KBML,2017-08-14 15:52:00,79.0,,35.0,30.0,10.0,Variable,4.6,,Partly Cloudy,False,False,False,False,False,False,False,False,False,False,False,False,False,Day,Day,Day,Day
A-5484873,Source1,2,2021-07-01 00:12:48,2021-07-01 01:29:17,32.742996999999995,-96.81671300000001,32.751215,-96.80929,0.713,Incident on I-35E NB near EWING AVE Drive with caution.,I-35E N,Dallas,Dallas,TX,75203,US,US/Central,KRBD,2021-07-01 00:53:00,81.0,81.0,72.0,29.28,10.0,SSE,7.0,0.0,Fair,False,False,False,False,False,False,False,False,False,False,False,False,False,Night,Night,Night,Night
A-4683917,Source1,2,2022-07-16 14:15:20,2022-07-16 17:40:27,40.811995,-74.05850699999998,40.838716,-74.018538,2.7880000000000003,Stationary traffic on I-95 N - New Jersey Tpke N from Carlstadt-East Rutherford Toll Plaza (I-95 (W Spur)/New Jersey Tpke (W Spur)/I-95) to I-95 (W Spur) &amp; I-95 (E Spur) Junction (North) (I-95 (W Spur)/New Jersey Tpke (W Spur)/I-95) due to accident.,New Jersey Tpke,Carlstadt,Bergen,NJ,07072,US,US/Eastern,KTEB,2022-07-16 13:51:00,77.0,77.0,71.0,30.05,10.0,N,5.0,0.04,Rain,False,False,False,False,False,False,False,False,False,False,False,False,False,Day,Day,Day,Day
A-5031891,Source1,2,2023-01-22 18:20:36,2023-01-22 19:35:41,39.85008,-82.801091,39.851201,-82.804295,0.187,Incident on US-33 WB near US-33 Drive with caution.,Columbus-Lancaster Rd,Canal Winchester,Franklin,OH,43110,US,US/Eastern,KLCK,2023-01-22 17:55:00,32.0,32.0,99.0,28.98,2.0,CALM,0.0,0.0,Light Snow,False,False,False,False,False,False,False,False,False,False,False,False,False,Night,Night,Day,Day
A-1131645,Source2,2,2021-03-04 07:33:14,2021-03-04 08:49:47,40.406712,-104.944412,,,0.0,Lane blocked due to accident on US-34 at CR-13 County Road 1.,US Highway 34,Johnstown,Weld,CO,80534,US,US/Mountain,KFNL,2021-03-04 07:56:00,34.0,25.0,56.0,24.91,10.0,N,12.0,0.0,Cloudy,False,False,False,False,False,False,False,False,False,False,False,False,False,Day,Day,Day,Day
A-5277902,Source1,2,2022-09-18 01:40:45,2022-09-18 02:55:51,32.134099,-110.96793100000001,32.133941,-110.967923,0.011000000000000001,Incident on S 6TH AVE near E VALENCIA RD Expect delays., E Valencia Rd,Tucson,Pima,AZ,85706-6847,US,US/Mountain,KTUS,2022-09-18 01:56:00,72.0,72.0,38.0,27.02,10.0,SE,10.0,0.0,Fair,False,False,True,False,False,False,False,False,False,False,False,True,False,Night,Night,Night,Night
A-7304686,Source1,2,2019-12-08 12:23:00,2019-12-08 12:57:01,38.495858,-121.445609,38.495858,-121.445609,0.0,At Florin Rd - Accident.,CA-99 N,Sacramento,Sacramento,CA,95823,US,US/Pacific,KSAC,2019-12-08 12:30:00,60.0,60.0,72.0,30.01,10.0,CALM,0.0,0.0,Cloudy,False,False,False,False,True,False,False,False,False,False,False,False,False,Day,Day,Day,Day
A-5649458,Source1,2,2021-08-19 11:50:08,2021-08-19 14:56:24,33.40704,-81.785659,33.406511,-81.783675,0.12,Incident on WILLISTON RD near GREEN POND RD Expect delays., Williston Rd,Aiken,Aiken,SC,29803-6984,US,US/Eastern,KAIK,2021-08-19 11:55:00,89.0,89.0,65.0,29.55,10.0,WSW,6.0,0.0,Partly Cloudy,False,False,False,False,False,False,False,False,False,False,False,False,False,Day,Day,Day,Day
A-7480922,Source1,2,2018-12-11 21:01:00,2018-12-11 21:30:39,37.071017,-80.704544,37.071017,-80.704544,0.0,At VA-100/Exit 98 - Accident. Left lane blocked.,I-81 N,Dublin,Pulaski,VA,24084,US,US/Eastern,KPSK,2018-12-11 20:55:00,30.0,20.0,59.0,30.1,10.0,SW,12.7,,Clear,False,False,False,False,False,False,False,False,False,False,False,False,False,Night,Night,Night,Night
A-5547665,Source1,2,2021-12-01 21:36:00,2021-12-01 22:54:11,26.1014020441718,-80.16902804336466,26.0943620441718,-80.16888804336467,0.486,Incident on I-95 SB near EXIT 25 Left lane blocked.,I-95,Fort Lauderdale,Broward,FL,33312,US,US/Eastern,KFLL,2021-12-01 21:53:00,71.0,71.0,75.0,30.14,10.0,NW,3.0,0.0,Fair,False,False,False,False,True,False,False,False,False,False,False,False,False,Night,Night,Night,Night
A-7052742,Source1,2,2020-06-23 22:23:00,2020-06-24 00:15:59,47.51408,-94.98236,47.51408,-94.98236,0.0,At MN-197/Paul Bunyan Dr NW - Accident., Highway 2 W,Bemidji,Beltrami,MN,56601,US,US/Central,KBJI,2020-06-23 22:15:00,57.0,57.0,88.0,28.43,10.0,WSW,6.0,0.0,Mostly Cloudy,False,False,False,False,False,False,False,False,False,False,False,False,False,Night,Night,Day,Night
A-6785405,Source1,2,2020-12-11 20:22:00.000000000,2020-12-11 22:01:31.000000000,34.132372,-117.670426,34.132374,-117.67028,0.008,Incident on 19TH ST near MOUNTAIN AVE Drive with caution., N Mountain Ave,Upland,San Bernardino,CA,91784,US,US/Pacific,KONT,2020-12-11 19:53:00,52.0,52.0,80.0,29.06,10.0,WSW,7.0,0.0,Fair,False,False,False,False,False,False,False,False,False,False,False,True,False,Night,Night,Night,Night
A-5241907,Source1,2,2022-01-19 12:32:30,2022-01-19 14:36:47,28.189166999999998,-82.398909,28.191419,-82.39748399999998,0.17800000000000002,Stationary traffic on FL-54 from Livingston Rd (FL-54) to Old Pasco Rd (FL-54) due to accident., State Road 54,Lutz,Pasco,FL,33559-6256,US,US/Eastern,KVDF,2022-01-19 12:35:00,73.0,73.0,50.0,30.19,10.0,SE,9.0,0.0,Partly Cloudy,False,False,False,False,False,False,False,False,False,False,False,False,False,Day,Day,Day,Day
A-4622474,Source1,2,2023-01-14 22:49:00.000000000,2023-01-15 00:06:32.000000000,33.397775,-117.59456200000001,33.395269,-117.593102,0.193,Incident on I-5 SB near CRISTIANITOS Drive with caution.,I-5 S,San Clemente,Orange,CA,92672,US,US/Pacific,KNXF,2023-01-14 22:52:00,59.0,59.0,93.0,29.76,2.0,VAR,6.0,0.0,Light Rain,False,False,False,False,False,False,False,False,False,False,False,False,False,Night,Night,Night,Night
A-236717,Source2,2,2017-01-20 14:51:04,2017-01-20 15:35:35,40.455246,-79.944298,,,0.01,Multi-vehicle accident and incident on PA-380 Baum Blvd at Morewood Ave.,Baum Blvd,Pittsburgh,Allegheny,PA,15213-1809,US,US/Eastern,KAGC,2017-01-20 14:53:00,55.9,,75.0,29.74,10.0,SW,10.4,,Overcast,False,False,False,False,False,False,False,False,False,False,False,False,False,Day,Day,Day,Day
A-1625032,Source2,2,2020-02-04 16:16:43,2020-02-04 16:45:59,42.283859,-71.043953,,,0.0,Accident on I-93 Southbound before Neponset Ave.,I-93 S,Dorchester Center,Suffolk,MA,02124,US,US/Eastern,KMQE,2020-02-04 15:53:00,49.0,49.0,54.0,29.68,10.0,CALM,0.0,0.0,Fair,False,False,False,False,False,False,False,False,False,False,False,False,False,Day,Day,Day,Day
A-85694,Source2,3,2016-08-01 20:37:07,2016-08-01 21:22:07,34.026848,-118.429909,,,0.0,One lane blocked due to accident on I-405 Northbound near Exits 53 53A 53B I-10.,National Blvd,Los Angeles,Los Angeles,CA,90064,US,US/Pacific,KSMO,2016-08-01 20:51:00,68.0,,84.0,29.96,10.0,WSW,6.9,,Overcast,False,False,False,False,False,False,False,False,False,False,False,False,False,Night,Night,Day,Day
A-1734571,Source2,3,2019-12-23 05:29:32,2019-12-23 05:59:15,34.06868,-118.042206,,,0.0,#4 lane blocked due to accident on I-10 Eastbound before Exit 28 Santa Anita Ave.,Santa Anita Ave,El Monte,Los Angeles,CA,91731,US,US/Pacific,KEMT,2019-12-23 05:53:00,52.0,52.0,80.0,29.74,10.0,ENE,16.0,0.06,Light Rain,False,False,False,False,False,False,False,False,False,False,False,False,False,Night,Night,Night,Day
A-981397,Source2,2,2021-07-02 04:09:50,2021-07-02 06:11:00,44.386169,-95.12748,,,0.0,Accident on US-71 at CR-16.,US Highway 71,Redwood Falls,Redwood,MN,56283,US,US/Central,KRWF,2021-07-02 03:53:00,65.0,65.0,90.0,29.02,10.0,ENE,3.0,0.0,Fair,False,False,False,False,False,False,False,False,False,False,False,False,False,Night,Night,Night,Day
A-4133973,Source1,2,2022-07-08 07:42:00,2022-07-08 15:37:30,33.653034000000005,-117.90755300000001,33.644393,-117.915773,0.762,Stationary traffic on Costa Mesa Fwy S - CA-55 S from Del Mar Ave/Fair Dr (CA-55) to Newport Blvd (CA-55) due to accident.,CA-55 S,Costa Mesa,Orange,CA,92627,US,US/Pacific,KSNA,2022-07-08 07:53:00,70.0,70.0,68.0,29.97,10.0,ENE,3.0,0.0,Cloudy,False,False,False,False,False,False,False,False,False,False,False,True,False,Day,Day,Day,Day
A-1605979,Source3,2,2020-01-22 07:27:18,2020-01-22 08:11:49,44.952209,-93.049477,,,0.0,Accident on I-94 Westbound at US-10.,US-12 W,Saint Paul,Ramsey,MN,55106,US,US/Central,KSTP,2020-01-22 07:53:00,34.0,26.0,79.0,29.14,10.0,S,10.0,0.0,Cloudy,False,False,False,False,True,False,False,False,False,False,False,False,False,Night,Day,Day,Day
A-480255,Source2,2,2017-06-05 15:05:09,2017-06-05 15:34:56,40.071724,-76.71932199999998,,,0.019999999552965164,Accident on Meeting House Rd at PA-181 George Street Ext.,Meeting House Rd,Manchester,York,PA,17345-9703,US,US/Eastern,KMDT,2017-06-05 14:56:00,69.1,,90.0,29.72,7.0,South,6.9,0.0,Overcast,False,False,False,False,False,False,False,False,False,False,False,True,False,Day,Day,Day,Day
A-7055246,Source1,3,2020-06-24 20:10:57,2020-06-24 20:25:57,33.93916,-84.50058,33.93916,-84.50058,0.0,Ramp to GA-120/S Marietta Pkwy SE - Accident. Hard shoulder blocked.,GA-401 N,Marietta,Cobb,GA,30067,US,US/Eastern,KMGE,2020-06-24 19:56:00,71.0,71.0,94.0,28.87,10.0,S,3.0,0.0,Cloudy,False,False,False,False,True,False,False,False,False,False,False,False,False,Day,Day,Day,Day
